NWSID,NOSID,Name,State,ETSS Lon,ETSS Lat,ETSS proximity,ETSS URL,ESTOFS Lon,ETSOFS Lat,ESTOFS proximity,ESTOFS URL,COOPS Lon,COOPS Lat,ETSS HAT-ft,ETSS MHHW-ft,ETSS MSL-ft,ETSS MLLW-ft,Minor MLLW ft,Moderate MLLW ft,Major MLLW ft,MHHW m,MLLW m,MHHW MLLW ft,Minor MHHW ft,Moderate MHHW ft,Major MHHW ft
WELM1,8419317,Wells-ME,ME,-70.5633,43.32,2.43E-05,http://slosh.nws.noaa.gov/etss/station/etsurge2.0esri/index.php?stid=8419317&datum=MLLW&show=1-1-0-1-1,-70.5589,43.3215,0.0035397,http://polar.ncep.noaa.gov/estofs/nowcoast/estofs_atl/ts-8419317.png,-70.5633,43.32,26.43,24.33,19.54,14.77,,,,7.413,4.5,9.56,,,
CASM1,8418150,Portland-ME,ME,-70.2466,43.6566,0.0016007,http://slosh.nws.noaa.gov/etss/station/etsurge2.0esri/index.php?stid=8418150&datum=MLLW&show=1-1-0-1-1,-70.246,43.6561,0.0012011,http://polar.ncep.noaa.gov/estofs/nowcoast/estofs_atl/ts-8418150.png,-70.2467,43.655,20.5,18.46,13.49,8.55,12,13,14,5.626,2.607,9.9,2.1,3.1,4.1
ATGM1,8413320,Bar-Harbor-Frenchman-Bay-ME,ME,-68.205,44.3916,0.0011928,http://slosh.nws.noaa.gov/etss/station/etsurge2.0esri/index.php?stid=8413320&datum=MLLW&show=1-1-0-1-1,-68.2038,44.3931,0.0014895,http://polar.ncep.noaa.gov/estofs/nowcoast/estofs_atl/ts-8413320.png,-68.2033,44.3917,17.16,14.84,9.14,3.47,17,20,23,4.524,1.058,11.37,5.6,8.6,11.6
PSBM1,8410140,Eastport-ME,ME,-66.985,44.9033,3.33E-05,http://slosh.nws.noaa.gov/etss/station/etsurge2.0esri/index.php?stid=8410140&datum=MLLW&show=1-1-0-1-1,-66.9826,44.9045,0.0020678,http://polar.ncep.noaa.gov/estofs/nowcoast/estofs_atl/ts-8410140.png,-66.985,44.9033,27.75,24.07,14.5,4.8,23,26,29,7.336,1.462,19.27,3.7,6.7,9.7
CFWM1,8411060,Cutler-Farris-Wharf-ME,ME,-67.2692,44.6281,0.053897,http://slosh.nws.noaa.gov/etss/station/etsurge2.0esri/index.php?stid=8411060&datum=MLLW&show=1-1-0-1-1,-67.1872,44.6494,0.01463,http://polar.ncep.noaa.gov/estofs/nowcoast/estofs_atl/ts-8411060.png,-67.205,44.6567,22.79,20.03,12.67,5.48,20,23,26,6.106,1.662,14.58,5.4,8.4,11.4
ASTM1,8417134,Gardiner-ME,ME,-69.7667,44.2333,4.10E-05,http://slosh.nws.noaa.gov/etss/station/etsurge2.0esri/index.php?stid=8417134&datum=MLLW&show=1-1-0-1-1,,,,,-69.7667,44.2333,29.43,28.24,24.91,21.72, , , , , , , , , 
FTPN3,8423898,Portsmouth-(Fort-Point)-NH,NH,-70.7117,43.0712,0.0013266,http://slosh.nws.noaa.gov/etss/station/etsurge2.0esri/index.php?stid=8423898&datum=MLLW&show=1-1-0-1-1,-70.7103,43.0717,0.00021412,http://polar.ncep.noaa.gov/estofs/nowcoast/estofs_atl/ts-8423898.png,-70.71,43.0717,14.22,12.1,7.4,2.71,12,13,14,3.694,0.829,9.4,2.6,3.6,4.6
NTKM3,8449130,Nantucket-Island-MA,MA,-70.0966,41.285,5.01E-05,http://slosh.nws.noaa.gov/etss/station/etsurge2.0esri/index.php?stid=8449130&datum=MLLW&show=1-1-0-1-1,-70.0914,41.2862,0.0041616,http://polar.ncep.noaa.gov/estofs/nowcoast/estofs_atl/ts-8449130.png,-70.0967,41.285,7.41,6.57,4.77,3,5,6,8,2.004,0.915,3.57,1.4,2.4,4.4
CHTM3,8447435,Chatham-MA,MA,-69.95,41.6883,0.0012451,http://slosh.nws.noaa.gov/etss/station/etsurge2.0esri/index.php?stid=8447435&datum=MLLW&show=1-1-0-1-1,,,,,-69.9517,41.6883,11.2,9.38,6.64,3.88,9,10,12,2.957,1.003,6.41,2.6,3.6,5.6
ZZZZZ,8447270,Buzzards-Bay-MA,MA,-70.6183,41.7416,0.0012205,http://slosh.nws.noaa.gov/etss/station/etsurge2.0esri/index.php?stid=8447270&datum=MLLW&show=1-1-0-1-1,,,,,-70.6167,41.7417,5.86,4.59,2.33,0.44, , , , , , , , , 
BZBM3,8447930,Woods-Hole-MA,MA,-70.6716,41.5233,6.00E-05,http://slosh.nws.noaa.gov/etss/station/etsurge2.0esri/index.php?stid=8447930&datum=MLLW&show=1-1-0-1-1,-70.6717,41.5233,4.16E-05,http://polar.ncep.noaa.gov/estofs/nowcoast/estofs_atl/ts-8447930.png,-70.6717,41.5233,5.84,4.82,3.6,2.62,6.7,8,10,1.469,0.797,2.21,4.5,5.8,7.8
FRVM3,8447386,Fall-River-MA,MA,-71.1633,41.7033,4.16E-05,http://slosh.nws.noaa.gov/etss/station/etsurge2.0esri/index.php?stid=8447386&datum=MLLW&show=1-1-0-1-1,-71.1667,41.7067,0.0041515,http://polar.ncep.noaa.gov/estofs/nowcoast/estofs_atl/ts-8447386.png,-71.1633,41.7033,27.16,25.63,23.06,20.85,7,9.5,12,7.812,6.356,4.78,2.2,4.7,7.2
BHBM3,8443970,Boston-MA,MA,-71.0516,42.355,0.0020435,http://slosh.nws.noaa.gov/etss/station/etsurge2.0esri/index.php?stid=8443970&datum=MLLW&show=1-1-0-1-1,-71.0451,42.3583,0.0061546,http://polar.ncep.noaa.gov/estofs/nowcoast/estofs_atl/ts-8443970.png,-71.05,42.3533,15.95,13.8,8.73,3.52,12.5,15,16,4.205,1.074,10.27,2.2,4.7,5.7
ZZZZZ,8447180,Sandwich-MA,MA,-70.5066,41.7716,8.32E-05,http://slosh.nws.noaa.gov/etss/station/etsurge2.0esri/index.php?stid=8447180&datum=MLLW&show=1-1-0-1-1,,,,,-70.5067,41.7717,15,10,5.25,0.55, , , , , , , , , 
NBDM3,8447712,New-Bedford-Hurricane-Barrier-MA,MA,-70.9103,41.62,0.027752,http://slosh.nws.noaa.gov/etss/station/etsurge2.0esri/index.php?stid=8447712&datum=MLLW&show=1-1-0-1-1,,,,,-70.9,41.5933,7,6.45,4.42,2.49, , , , , , , , , 
GLCM3,ZZZZZZ0,Gloucester-MA,MA,-70.6606,42.6103,,,,,,,,, , , , , , , , , , , , , 
SCTM3,ZZZZZZ0,Scituate-MA,MA,-70.72,42.1994,,,,,,,,, , , , , , , , , , , , , 
SESM3,8447241,Sesuit-Harbor-MA,MA,-70.155,41.7517,3.33E-05,,,,,,-70.155,41.7517, ,12.82,7.5,2.36, , , , , , , , , 
PVHM3,8446121,Provincetown-MA,MA,-70.1867,42.05,0.0037376,,,,,,-70.1817,42.05, ,14.1,9,4.02, , , , , , , , , 
HVRM3,8440889,Riverside-Merrimack-MA,MA,-71.0767,42.7633,4.14E-05,,,,,,-71.0767,42.7633, ,9.8,6.48,3.5, , , , , , , , , 
CPTR1,8452944,Conimicut-Light-RI,RI,-71.3433,41.7167,4.16E-05,http://slosh.nws.noaa.gov/etss/station/etsurge2.0esri/index.php?stid=8452944&datum=MLLW&show=1-1-0-1-1,-71.3433,41.7167,4.16E-05,http://polar.ncep.noaa.gov/estofs/nowcoast/estofs_atl/ts-8452944.png,-71.3433,41.7167,24.61,23.12,20.64,18.54,7,9,12,7.048,5.65,4.59,2.4,4.4,7.4
NWPR1,8452660,Newport-RI,RI,-71.3266,41.505,0.0016674,http://slosh.nws.noaa.gov/etss/station/etsurge2.0esri/index.php?stid=8452660&datum=MLLW&show=1-1-0-1-1,-71.3267,41.505,0.0016669,http://polar.ncep.noaa.gov/estofs/nowcoast/estofs_atl/ts-8452660.png,-71.3267,41.5033,7.05,5.74,3.63,1.89,6.6,8,10,1.751,0.577,3.85,2.7,4.2,6.2
QPTR1,8454049,Quonset-Point-RI,RI,-71.41,41.5867,3.33E-05,http://slosh.nws.noaa.gov/etss/station/etsurge2.0esri/index.php?stid=8454049&datum=MLLW&show=1-1-0-1-1,-71.408,41.5838,0.0032528,http://polar.ncep.noaa.gov/estofs/nowcoast/estofs_atl/ts-8454049.png,-71.41,41.5867,28.45,27.13,24.89,23.03,7,9,12,8.27,7.021,4.1,2.9,4.9,7.9
FOXR1,8454000,Providence-RI,RI,-71.4016,41.8066,0.0011945,http://slosh.nws.noaa.gov/etss/station/etsurge2.0esri/index.php?stid=8454000&datum=MLLW&show=1-1-0-1-1,-71.3984,41.808,0.0017989,http://polar.ncep.noaa.gov/estofs/nowcoast/estofs_atl/ts-8454000.png,-71.4,41.8067,10.01,8.33,5.75,3.49,7,9,12,2.539,1.064,4.84,2.2,4.2,7.2
ZZZZZ,8459681,Block-Island-RI,RI,-71.6133,41.1583,0.0056131,http://slosh.nws.noaa.gov/etss/station/etsurge2.0esri/index.php?stid=8459681&datum=MLLW&show=1-1-0-1-1,,,,,-71.61,41.1633,5.13,4.08,2.29,0.8, , , , , , , , , 
WHLR1,8458694,Watch-Hill-Point-RI,RI,-71.86,41.305,0,,,,,,-71.86,41.305, ,5.46,3.89,2.46, , , , , , , , , 
NLNC3,8461490,New-London-CT,CT,-72.0866,41.355,5.00E-05,http://slosh.nws.noaa.gov/etss/station/etsurge2.0esri/index.php?stid=8461490&datum=MLLW&show=1-1-0-1-1,-72.0898,41.3611,0.0065377,http://polar.ncep.noaa.gov/estofs/nowcoast/estofs_atl/ts-8461490.png,-72.0867,41.355,7.4,6.57,5.06,3.52,5,6,7.8,2.003,1.074,3.05,1.9,2.9,4.7
BRHC3,8467150,Bridgeport-CT,CT,-73.1816,41.1733,0.002143,http://slosh.nws.noaa.gov/etss/station/etsurge2.0esri/index.php?stid=8467150&datum=MLLW&show=1-1-0-1-1,-73.1817,41.1733,0.002098,http://polar.ncep.noaa.gov/estofs/nowcoast/estofs_atl/ts-8467150.png,-73.1833,41.175,10.8,9.3,5.6,1.98,8.9,10.4,11.4,2.835,0.604,7.32,1.6,3.1,4.1
NWHC3,8465705,New-Haven-CT,CT,-72.9083,41.2833,4.17E-05,http://slosh.nws.noaa.gov/etss/station/etsurge2.0esri/index.php?stid=8465705&datum=MLLW&show=1-1-0-1-1,-72.9104,41.2834,0.0015929,http://polar.ncep.noaa.gov/estofs/nowcoast/estofs_atl/ts-8465705.png,-72.9083,41.2833,26.58,25.14,21.75,18.43,8.6,9.2,10.5,7.662,5.618,6.71,1.9,2.5,3.8
STDC3,8469198,Stamford-CT,CT,-73.5347,41.0372,0.0090971,,,,,,-73.5467,41.0383, , , , , , , , , , , , , 
BGNN4,8519483,Bergen-Point-NY,NY,-74.1466,40.64,0.0050125,http://slosh.nws.noaa.gov/etss/station/etsurge2.0esri/index.php?stid=8519483&datum=MLLW&show=1-1-0-1-1,-74.1424,40.641,0.0044166,http://polar.ncep.noaa.gov/estofs/nowcoast/estofs_atl/ts-8519483.png,-74.1417,40.6367,11.19,9.75,7.01,4.24,7.2,8.5,10,2.971,1.291,5.51,1.7,3,4.5
MTKN6,8510560,Montauk-Point-NY,NY,-71.96,41.0483,3.33E-05,http://slosh.nws.noaa.gov/etss/station/etsurge2.0esri/index.php?stid=8510560&datum=MLLW&show=1-1-0-1-1,-71.9632,41.0498,0.0028258,http://polar.ncep.noaa.gov/estofs/nowcoast/estofs_atl/ts-8510560.png,-71.96,41.0483,7.4,6.39,5.1,3.86,4.5,5.3,7,1.947,1.177,2.53,2,2.8,4.5
ZZZZZ,8516990,Willets-Point-NY,NY,-73.7816,40.7933,6.05E-05,http://slosh.nws.noaa.gov/etss/station/etsurge2.0esri/index.php?stid=8516990&datum=MLLW&show=1-1-0-1-1,,,,,-73.7817,40.7933,25,12.78,8.87,5, , , , , , , , , 
BATN6,8518750,The-Battery-NY,NY,-74.015,40.7,0.0012636,http://slosh.nws.noaa.gov/etss/station/etsurge2.0esri/index.php?stid=8518750&datum=MLLW&show=1-1-0-1-1,-74.0146,40.6996,0.0010233,http://polar.ncep.noaa.gov/estofs/nowcoast/estofs_atl/ts-8518750.png,-74.0133,40.7,9.64,8.34,5.86,3.29,7.2,8.5,10,2.543,1.002,5.06,2.1,3.4,4.9
ZZZZZ,8514560,Port-Jefferson-NY,NY,-73.0766,40.95,5.04E-05,http://slosh.nws.noaa.gov/etss/station/etsurge2.0esri/index.php?stid=8514560&datum=MLLW&show=1-1-0-1-1,,,,,-73.0767,40.95,12.18,10.72,7.09,3.55, , , , , , , , , 
KPTN6,8516945,Kings-Point-NY,NY,-73.7816,40.81,0.012564,http://slosh.nws.noaa.gov/etss/station/etsurge2.0esri/index.php?stid=8516945&datum=MLLW&show=1-1-0-1-1,-73.7678,40.8099,0.0021012,http://polar.ncep.noaa.gov/estofs/nowcoast/estofs_atl/ts-8516945.png,-73.765,40.81,22.54,20.69,16.77,12.89,10,10.5,13,6.306,3.928,7.8,2.2,2.7,5.2
FRPN6,8516411,Hudson-Bay-at-Freeport-NY,NY,-73.5758,40.6275,0.010102,,,,,,-73.5867,40.6333, ,3.48,1.16,-1.01, , , , , , , , , 
LNDN6,ZZZZZZ0,Great-South-Bay-at-Lindenhurst-NY,NY,-73.356,40.6693,,,,,,,,, ,1.99,1.23,0.49, , , , , , , , , 
REYN6,8516402,Reynolds-Channel-at-Point-Lookout-NY,NY,-73.5841,40.5933,0.00058312,,,,,,-73.5833,40.5933, ,3.66,1.09,-1.3524, , , , , , , , , 
RKWN6,8516881,East-Rockaway-Inlet-at-Atlantic-Beach-NY,NY,-73.7377,40.593,0.0047221,,,,,,-73.7433,40.595, ,3.57,1,-1.422, , , , , , , , , 
IWDN6,8516925,Jamaica-Bay-at-Inwood-NY,NY,-73.7583,40.6172,0.00053393,,,,,,-73.7583,40.6167, ,3.87,0.87,-2.03, , , , , , , , , 
RWYN6,8517394,Rockaway-Inlet-near-Floyd-Bennet-Field-NY,NY,-73.8856,40.5735,0.0052603,,,,,,-73.8883,40.5783, ,3.74,0.87,-1.85, , , , , , , , , 
WESN6,8516614,West-Pond-at-Glen-Cove-NY,NY,-73.638,40.8886,0.028348,,,,,,-73.655,40.8633, ,4.82,0.82,-3.07, , , , , , , , , 
PMTN6,8518919,Hudson-River-at-Piermont-NY,NY,-73.8965,41.0432,0.040418,,,,,,-73.87,41.0783, ,3.07,1.1,-0.9, , , , , , , , , 
ORIN6,8511671,Orient-Harbor-at-Orient-NY,NY,-72.3066,41.1363,0.00037009,,,,,,-72.3067,41.1367, ,2.13,0.7,-0.72, , , , , , , , , 
PECN6,ZZZZZZ0,Peconic-River-at-Riverhead-NY,NY,-72.6387,40.9178,,,,,,,,, ,2.17,0.5,-1.16, , , , , , , , , 
FLXN6,8514594,Flax-Pond-at-Old-Field-NY,NY,-73.143,40.962,0.039948,,,,,,-73.0917,40.9717, ,4.56,0.87,-2.69, , , , , , , , , 
PRIN6,8512735,S-Jamesport-NY,NY,-72.6386,40.9178,0.046327,,,,,,-72.5817,40.935,5.3,4.69,2.98,1.38, , , , , , , , , 
MOBN6,8513388,Moriches-MorichesBay-NY,NY,-72.75,40.7867,3.33E-05,,,,,,-72.75,40.7867,4.67,4.24,2.94,1.74, , , , , , , , , 
FIRN6,8514322,Patchogue-River-NY,NY,-72.9897,40.6913,0.059217,,,,,,-73,40.75, ,1.77,1.03,0.36, , , , , , , , , 
INDN6,8515421,Babylon-NY,NY,-73.3561,40.6691,0.034991,,,,,,-73.315,40.685, ,1.87,1.11,0.38, , , , , , , , , 
TPBN4,8538886,Tacony-palmyra-Bridge-NJ,NJ,-75.0417,40.0117,0.0012514,http://slosh.nws.noaa.gov/etss/station/etsurge2.0esri/index.php?stid=8538886&datum=MLLW&show=1-1-0-1-1,-75.043,40.0119,0.00034587,http://polar.ncep.noaa.gov/estofs/nowcoast/estofs_atl/ts-8538886.png,-75.0433,40.0117,25.77,24.52,21.01,17.37, , , , , , , , , 
SJSN4,8537121,Ship-John-Shoal-NJ,NJ,-75.375,39.305,0,http://slosh.nws.noaa.gov/etss/station/etsurge2.0esri/index.php?stid=8537121&datum=MLLW&show=1-1-0-1-1,-75.375,39.305,0,http://polar.ncep.noaa.gov/estofs/nowcoast/estofs_atl/ts-8537121.png,-75.375,39.305,26.2,24.62,21.45,18.39,,,,7.494,5.6,6.21,,,
CMAN4,8536110,Cape-May-NJ,NJ,-74.96,38.9683,3.33E-05,http://slosh.nws.noaa.gov/etss/station/etsurge2.0esri/index.php?stid=8536110&datum=MLLW&show=1-1-0-1-1,-74.9702,38.9689,0.0079133,http://polar.ncep.noaa.gov/estofs/nowcoast/estofs_atl/ts-8536110.png,-74.96,38.9683,9.13,7.87,4.99,2.42,6.7,7.7,8.7,2.398,0.738,5.45,1.3,2.3,3.3
SDHN4,8531680,Sandy-Hook-NJ,NJ,-74.01,40.4666,6.67E-05,http://slosh.nws.noaa.gov/etss/station/etsurge2.0esri/index.php?stid=8531680&datum=MLLW&show=1-1-0-1-1,-74.0097,40.4665,0.0002713,http://polar.ncep.noaa.gov/estofs/nowcoast/estofs_atl/ts-8531680.png,-74.01,40.4667,9.11,7.74,5.09,2.51,6.7,7.7,8.7,2.359,0.766,5.22,1.5,2.5,3.5
BDRN4,8539094,Burlington-NJ,NJ,-74.8683,40.0817,0.0042097,http://slosh.nws.noaa.gov/etss/station/etsurge2.0esri/index.php?stid=8539094&datum=MLLW&show=1-1-0-1-1,-74.8697,40.0817,0.0032586,http://polar.ncep.noaa.gov/estofs/nowcoast/estofs_atl/ts-8539094.png,-74.8733,40.08,26.3,24.69,20.83,16.83,9.3,10.3,11.3,7.531,5.14,7.84,1.5,2.5,3.5
ACYN4,8534720,Atlantic-City-NJ,NJ,-74.4183,39.355,0.0016669,http://slosh.nws.noaa.gov/etss/station/etsurge2.0esri/index.php?stid=8534720&datum=MLLW&show=1-1-0-1-1,-74.418,39.3546,0.0020493,http://polar.ncep.noaa.gov/estofs/nowcoast/estofs_atl/ts-8534720.png,-74.4183,39.3567,10.79,9.56,7.17,4.96,6,7,8,2.914,1.511,4.6,1.4,2.4,3.4
ALCN4,8534836,Atlantic-City-NJ,NJ,-74.4569,39.3533,0.074272,,,,,,-74.5333,39.3083, ,6.38,4.09,2.05, , , , , , , , , 
ASCN4,8534540,Absecon-NJ,NJ,-74.4994,39.4228,0.00070236,,,,,,-74.5,39.4233, ,6.58,4.28,2.19, , , , , , , , , 
ATLN4,8534638,ATLANTIC-CITY-MARINA-NJ,NJ,-74.4239,39.3775,0.0075489,,,,,,-74.425,39.385, , , , , , , , , , , , , 
AVLN4,8535419,Avalon-NJ,NJ,-74.7342,39.1108,0.0033354,,,,,,-74.7383,39.11, ,8.79,6.37,4.18, , , , , , , , , 
BGLN4,8533615,Barnegat-Light-NJ,NJ,-74.1081,39.7611,0.0028278,,,,,,-74.1117,39.7617,6.85,6.01,4.7,3.5, , , , , , , , , 
BLMN4,8532337,Belmar-NJ,NJ,-74.0222,40.1822,0.010967,,,,,,-74.0083,40.185, , , , , , , , , , , , , 
BSRN4,ZZZZZZ0,Seaside-Heights-NJ,NJ,-74.0822,39.9383,,,,,,,,, , , , , , , , , , , , , 
BVVN4,8536889,Bivalve-NJ,NJ,-75.0331,39.2317,0.0032548,,,,,,-75.0367,39.23, , , , , , , , , , , , , 
CAPN4,8535901,CAPE-MAY-HARBOR-NJ,NJ,-74.8903,38.9486,0.0011134,,,,,,-74.8917,38.9483, , , , , , , , , , , , , 
GRWN4,8537374,Greenwich-NJ,NJ,-75.35,39.3833,3.33E-05,,,,,,-75.35,39.3833, , , , , , , , , , , , , 
KSBN4,8531592,KEANSBURG-NJ,NJ,-74.1475,40.4486,0.0031828,,,,,,-74.1433,40.4483, , , , , , , , , , , , , 
MSNN4,8632591,Manasquan-NJ,NJ,-74.0447,40.1117,,,,,,,,, , , , , , , , , , , , , 
MTLN4,8532786,Mantaloking-NJ,NJ,-74.0522,40.04,0.0034406,,,,,,-74.0533,40.0367, , , , , , , , , , , , , 
NWKN4,8530743,Newark-NJ,NJ,-74.1231,40.7131,0.019227,,,,,,-74.1167,40.7317, ,6.55,3.63,0.81, , , , , , , , , 
ONCN4,8534975,Ocean-City-NJ,NJ,-74.6278,39.2536,0.034726,,,,,,-74.6283,39.2883, , , , , , , , , , , , , 
SABN4,ZZZZZZ0,South-Amboy-NJ,NJ,-74.2814,40.4922,,,,,,,,, , , , , , , , , , , , , 
SBIN4,8531804,Sea-Bright-NJ,NJ,-73.9747,40.3656,0.00059926,,,,,,-73.975,40.365, ,6.43,4.4,2.51, , , , , , , , , 
SBTN4,8533935,Ship-Bottom-NJ,NJ,-74.185,39.6536,0.00027667,,,,,,-74.185,39.6533, , , , , , , , , , , , , 
SDNN4,ZZZZZZ0,S-Dennis-NJ,NJ,-74.8322,39.1617,,,,,,,,, , , , , , , , , , , , , 
SHBN4,8535581,Stone-Harbor-NJ,NJ,-74.7658,39.0569,0.00070008,,,,,,-74.765,39.0567, , , , , , , , , , , , , 
SICN4,8535221,Sea-Isle-City-NJ,NJ,-74.6978,39.1575,0.02138,,,,,,-74.71,39.1767, , , , , , , , , , , , , 
TKTN4,8534319,Tuckerton-NJ,NJ,-74.325,39.5089,0.00055667,,,,,,-74.325,39.5083,2.24,1.5,-0.26,-1.83, , , , , , , , , 
WATN4,8533541,Waretown-NJ,NJ,-74.1819,39.7911,0.00059497,,,,,,-74.1817,39.7917, , , , , , , , , , , , , 
BASN4,8533055,Coates-Point-NJ,NJ,-74.115,39.9483,3.33E-05,,,,,,-74.115,39.9483, , , , , , , , , , , , , 
MGTN4,8534836,Longport-Risely-Channel-NJ,NJ,-74.5333,39.3083,4.21E-05,,,,,,-74.5333,39.3083, ,6.38,4.09,2.05, , , , , , , , , 
PABN4,8531232,S-Amboy-Raritan-River-NJ,NJ,-74.2817,40.1917,0.29997,,,,,,-74.2817,40.4917, , , , , , , , , , , , , 
ABSN4,8534540,Absecon-Creek-NJ,NJ,-74.5,39.4233,3.33E-05,,,,,,-74.5,39.4233, ,6.58,4.28,2.19, , , , , , , , , 
MRCP1,8540433,Marcus-Hook-PA,PA,-75.41,39.8117,3.33E-05,http://slosh.nws.noaa.gov/etss/station/etsurge2.0esri/index.php?stid=8540433&datum=MLLW&show=1-1-0-1-1,-75.41,39.8117,3.33E-05,http://polar.ncep.noaa.gov/estofs/nowcoast/estofs_atl/ts-8540433.png,-75.41,39.8117,29.25,27.74,24.73,21.6,,,,8.456,6.585,6.14,,,
PHBP1,8545240,Philadelphia-PA,PA,-75.1416,39.9333,0.0033004,http://slosh.nws.noaa.gov/etss/station/etsurge2.0esri/index.php?stid=8545240&datum=MLLW&show=1-1-0-1-1,-75.1399,39.9312,0.0017993,http://polar.ncep.noaa.gov/estofs/nowcoast/estofs_atl/ts-8545240.png,-75.1417,39.93,11.75,10.51,7.31,3.82,8.2,9.2,10.2,3.204,1.165,6.69,1.5,2.5,3.5
BDSP1,8546252,Bridesburg-PA,PA,-75.075,39.9833,3.33E-06,,,,,,-75.075,39.9833,27.95,26.47,23.09,19.5,,,,8.106,5.974,6.99,,,
NBLP1,8548989,Newbold-PA,PA,-74.7517,40.1367,4.20E-05,http://slosh.nws.noaa.gov/etss/station/etsurge2.0esri/index.php?stid=8548989&datum=MLLW&show=1-1-0-1-1,-74.7516,40.136,0.00062816,http://polar.ncep.noaa.gov/estofs/nowcoast/estofs_atl/ts-8548989.png,-74.7517,40.1367,23.74,22.71,18.65,14.32,10.2,11.2,12.2,6.93,4.381,8.36,1.8,2.8,3.8
LWSD1,8557380,Lewes-DE,DE,-75.12,38.7816,0.0021662,http://slosh.nws.noaa.gov/etss/station/etsurge2.0esri/index.php?stid=8557380&datum=MLLW&show=1-1-0-1-1,-75.1201,38.7856,0.002666,http://polar.ncep.noaa.gov/estofs/nowcoast/estofs_atl/ts-8557380.png,-75.1183,38.7833,8.6,7.44,5.01,2.78,6,7,8,2.266,0.848,4.65,1.3,2.3,3.3
DELD1,8551762,Delaware-City-DE,DE,-75.5883,39.5817,4.21E-05,http://slosh.nws.noaa.gov/etss/station/etsurge2.0esri/index.php?stid=8551762&datum=MLLW&show=1-1-0-1-1,-75.5883,39.5817,4.21E-05,http://polar.ncep.noaa.gov/estofs/nowcoast/estofs_atl/ts-8551762.png,-75.5883,39.5817,29,28.4,25.35,22.4,7.5,8.5,9.5,8.657,6.826,6.01,1.5,2.5,3.5
RDYD1,8551910,Reedy-Point-DE,DE,-75.5733,39.5583,4.21E-05,http://slosh.nws.noaa.gov/etss/station/etsurge2.0esri/index.php?stid=8551910&datum=MLLW&show=1-1-0-1-1,-75.5733,39.5587,0.00036757,http://polar.ncep.noaa.gov/estofs/nowcoast/estofs_atl/ts-8551910.png,-75.5733,39.5583,8.18,7.19,4.27,1.35,7.2,8.2,9.2,2.191,0.411,5.84,1.4,2.4,3.4
BRND1,8555889,Brandywine-Shoal-Light-DE,DE,-75.1133,38.9867,4.22E-06,,,,,,-75.1133,38.9867,25.97,24.48,21.6,18.99, , , , , , , , , 
BOWD1,8555388,Murderkill-River-ENTR-DE,DE,-75.3967,39.0583,4.22E-05,,,,,,-75.3967,39.0583, , , , , , , , , , , , , 
SLIM2,8577330,Solomons-Island-MD,MD,-76.4516,38.3166,0.0012571,http://slosh.nws.noaa.gov/etss/station/etsurge2.0esri/index.php?stid=8577330&datum=MLLW&show=1-1-0-1-1,-76.4517,38.3167,0.0013342,http://polar.ncep.noaa.gov/estofs/nowcoast/estofs_atl/ts-8577330.png,-76.45,38.3167,5.58,5.2,4.48,3.72,2.8,4,5,1.584,1.135,1.47,1.3,2.5,3.5
CAMM2,8571892,Cambridge-MD,MD,-76.0683,38.5733,0.0031333,http://slosh.nws.noaa.gov/etss/station/etsurge2.0esri/index.php?stid=8571892&datum=MLLW&show=1-1-0-1-1,-76.0683,38.5758,0.0027344,http://polar.ncep.noaa.gov/estofs/nowcoast/estofs_atl/ts-8571892.png,-76.0717,38.575,4.97,4.5,3.48,2.46,3.5,4,4.5,1.372,0.75,2.04,1.5,2,2.5
CHCM2,8573927,Chesapeake-City-MD,MD,-75.81,39.5266,6.67E-05,http://slosh.nws.noaa.gov/etss/station/etsurge2.0esri/index.php?stid=8573927&datum=MLLW&show=1-1-0-1-1,-75.81,39.5277,0.0010333,http://polar.ncep.noaa.gov/estofs/nowcoast/estofs_atl/ts-8573927.png,-75.81,39.5267,7,6.35,4.7,3.14,5.5,6.5,7.5,1.936,0.957,3.21,2.3,3.3,4.3
OCIM2,8570283,Ocean-City-Inlet-MD,MD,-75.0917,38.3283,4.24E-05,http://slosh.nws.noaa.gov/etss/station/etsurge2.0esri/index.php?stid=8570283&datum=MLLW&show=1-1-0-1-1,-75.0917,38.3283,4.24E-05,http://polar.ncep.noaa.gov/estofs/nowcoast/estofs_atl/ts-8570283.png,-75.0917,38.3283,11.31,10.5,9.31,8.03,4,5,6,3.2,2.449,2.46,1.5,2.5,3.5
BLTM2,8574680,Baltimore-MD,MD,-76.5783,39.2666,0.0013178,http://slosh.nws.noaa.gov/etss/station/etsurge2.0esri/index.php?stid=8574680&datum=MLLW&show=1-1-0-1-1,-76.5774,39.2668,0.0020156,http://polar.ncep.noaa.gov/estofs/nowcoast/estofs_atl/ts-8574680.png,-76.58,39.2667,6.38,5.76,4.91,4.1,3,5,6,1.757,1.251,1.66,1.3,3.3,4.3
TCBM2,8573364,Tolchester-Beach-MD,MD,-76.245,39.2133,3.33E-05,http://slosh.nws.noaa.gov/etss/station/etsurge2.0esri/index.php?stid=8573364&datum=MLLW&show=1-1-0-1-1,-76.248,39.2134,0.0023492,http://polar.ncep.noaa.gov/estofs/nowcoast/estofs_atl/ts-8573364.png,-76.245,39.2133,5.81,5.14,4.25,3.41,3.5,4.5,5.5,1.567,1.04,1.73,1.8,2.8,3.8
APAM2,8575512,Annapolis-MD,MD,-76.48,38.9833,0.001296,http://slosh.nws.noaa.gov/etss/station/etsurge2.0esri/index.php?stid=8575512&datum=MLLW&show=1-1-0-1-1,-76.4805,38.9849,0.001818,http://polar.ncep.noaa.gov/estofs/nowcoast/estofs_atl/ts-8575512.png,-76.4817,38.9833,6.46,5.95,5.24,4.52,2.4,3.3,6,1.815,1.377,1.44,1,1.9,4.6
BISM2,8571421,Bishops-Head-MD,MD,-76.0383,38.22,2.62E-05,http://slosh.nws.noaa.gov/etss/station/etsurge2.0esri/index.php?stid=8571421&datum=MLLW&show=1-1-0-1-1,-76.0383,38.2195,0.00053016,http://polar.ncep.noaa.gov/estofs/nowcoast/estofs_atl/ts-8571421.png,-76.0383,38.22,31.44,30.99,29.96,28.94,3.2,3.7,4.2,9.445,8.821,2.05,1.2,1.7,2.2
HDGM2,8574070,Havre-de-Grace-MD,MD,-76.0897,39.5378,0.0011567,,,,,,-76.09,39.5367,9.468,8.76,7.5,6.32, , , , , , , , , 
PPTM2,8578240,Piney-Point-MD,MD,-76.5333,38.1333,4.24E-05,http://slosh.nws.noaa.gov/etss/station/etsurge2.0esri/index.php?stid=8578240&datum=MLLW&show=1-1-0-1-1,,,,,-76.5333,38.1333,1.62,1.62,0.81, , , , , , , , , , 
BRIM2,ZZZZZZ0,Bristol-MD,MD,-76.7136,38.7814,,,,,,,,, , , , , , , , , , , , , 
LTQM2,ZZZZZZ0,Otter-Point-MD,MD,-76.2747,39.4508,,,,,,,,, , , , , , , , , , , , , 
BQTM2,ZZZZZZ0,Bowleys-Quarters-MD,MD,-76.39,39.31,,,,,,,,, , , , , , , , , , , , , 
CHBM2,8576363,Chesapeake-Beach-MD,MD,-76.5333,38.7,2.60E-05,http://slosh.nws.noaa.gov/etss/station/etsurge2.0esri/index.php?stid=8576363&datum=MLLW&show=1-1-0-1-1,,,,,-76.5333,38.7,1.4,1.4,0.69, , , , , , , , , , 
PLKM2,8578002,Point-Lookout-MD,MD,-76.3233,38.04,2.63E-05,http://slosh.nws.noaa.gov/etss/station/etsurge2.0esri/index.php?stid=8578002&datum=MLLW&show=1-1-0-1-1,,,,,-76.3233,38.04,1.52,1.52,0.78, , , , , , , , , , 
CPTM2,8578465,Colton-Point-MD,MD,-76.7483,38.2233,4.24E-05,http://slosh.nws.noaa.gov/etss/station/etsurge2.0esri/index.php?stid=8578465&datum=MLLW&show=1-1-0-1-1,,,,,-76.7483,38.2233,1.89,1.89,0.94, , , , , , , , , , 
WASD2,8594900,Washington-DC,DC,-77.0216,38.8733,6.17E-05,http://slosh.nws.noaa.gov/etss/station/etsurge2.0esri/index.php?stid=8594900&datum=MLLW&show=1-1-0-1-1,-77.0217,38.8733,4.22E-05,http://polar.ncep.noaa.gov/estofs/nowcoast/estofs_atl/ts-8594900.png,-77.0217,38.8733,8.36,7.72,6.1,4.56,4.2,5.3,7,2.353,1.387,3.17,1,2.1,3.8
ANAD2,8593909,Kenilworth-Aquatic-Garden-DC,DC,-76.955,38.91,0,http://slosh.nws.noaa.gov/etss/station/etsurge2.0esri/index.php?stid=8593909&datum=MLLW&show=1-1-0-1-1,,,,,-76.955,38.91,2.95,1.78,0.08,-1.52, , , , , , , , , 
ALEV2,8590111,Bellevue-DC,DC,-77.0267,38.8267,4.23E-05,,,,,,-77.0267,38.8267, , , , , , , , , , , , , 
WNDV2,8636580,Windmill-Point-VA,VA,-76.29,37.615,0,http://slosh.nws.noaa.gov/etss/station/etsurge2.0esri/index.php?stid=8636580&datum=MLLW&show=1-1-0-1-1,-76.2901,37.6106,0.0043706,http://polar.ncep.noaa.gov/estofs/nowcoast/estofs_atl/ts-8636580.png,-76.29,37.615,4.27,3.65,2.96,2.26,3,3.5,4,1.113,0.689,1.39,1.6,2.1,2.6
SWPV2,8638610,Sewells-Point-VA,VA,-76.3316,36.9467,0.0012791,http://slosh.nws.noaa.gov/etss/station/etsurge2.0esri/index.php?stid=8638610&datum=MLLW&show=1-1-0-1-1,-76.33,36.9467,3.33E-05,http://polar.ncep.noaa.gov/estofs/nowcoast/estofs_atl/ts-8638610.png,-76.33,36.9467,8.01,7.14,5.73,4.38,4.5,5.5,6.5,2.176,1.336,2.76,1.7,2.7,3.7
MNPV2,8639348,Portsmouth-(Money-Point)-VA,VA,-76.2933,36.8216,0.043782,http://slosh.nws.noaa.gov/etss/station/etsurge2.0esri/index.php?stid=8639348&datum=MLLW&show=1-1-0-1-1,-76.3017,36.778,0.0003344,http://polar.ncep.noaa.gov/estofs/nowcoast/estofs_atl/ts-8639348.png,-76.3017,36.7783,25.75,24.82,23.18,21.61,5,6,7,7.564,6.587,3.21,1.8,2.8,3.8
ZZZZZ,8635150,Colonial-Beach-VA,VA,-76.96,38.2516,6.67E-05,http://slosh.nws.noaa.gov/etss/station/etsurge2.0esri/index.php?stid=8635150&datum=MLLW&show=1-1-0-1-1,,,,,-76.96,38.2517,5.1,4.35,3.29,2.38, , , , , , , , , 
YKTV2,8637689,Yorktown-USCG-VA,VA,-76.5,37.2466,0.026361,http://slosh.nws.noaa.gov/etss/station/etsurge2.0esri/index.php?stid=8637689&datum=MLLW&show=1-1-0-1-1,-76.2711,37.3467,0.20394,http://polar.ncep.noaa.gov/estofs/nowcoast/estofs_atl/ts-8637689.png,-76.4783,37.2267,8.72,7.78,6.44,5.2,4.5,5,5.5,2.372,1.586,2.58,1.9,2.4,2.9
KPTV2,8632200,Kiptopeke-Beach-VA,VA,-75.9883,37.1666,0.0016002,http://slosh.nws.noaa.gov/etss/station/etsurge2.0esri/index.php?stid=8632200&datum=MLLW&show=1-1-0-1-1,-75.9884,37.1652,0.00020694,http://polar.ncep.noaa.gov/estofs/nowcoast/estofs_atl/ts-8632200.png,-75.9883,37.165,7.5,6.56,5.05,3.63,4.5,5,5.5,2.001,1.105,2.94,1.6,2.1,2.6
CBBV2,8638863,Chesapeake-Bay-Br-Tunnel-VA,VA,-76.1133,36.9666,7.18E-05,http://slosh.nws.noaa.gov/etss/station/etsurge2.0esri/index.php?stid=8638863&datum=MLLW&show=1-1-0-1-1,-76.1133,36.9667,4.27E-05,http://polar.ncep.noaa.gov/estofs/nowcoast/estofs_atl/ts-8638863.png,-76.1133,36.9667,29.16,28.18,26.69,25.27,5,5.5,6,8.588,7.704,2.9,2.1,2.6,3.1
CHBV2,8638901,CBBT-Chesapeake-Channel-VA,VA,-76.0833,37.0329,0.00043415,,,,,,-76.0833,37.0333, ,7.31,5.76,4.28, , , , , , , , , 
LWTV2,8635750,Lewisetta-VA,VA,-76.465,37.995,0,http://slosh.nws.noaa.gov/etss/station/etsurge2.0esri/index.php?stid=8635750&datum=MLLW&show=1-1-0-1-1,-76.4645,37.995,0.00036375,http://polar.ncep.noaa.gov/estofs/nowcoast/estofs_atl/ts-8635750.png,-76.465,37.995,6.72,6.27,5.53,4.77,3,3.5,4,1.913,1.454,1.5,1.5,2,2.5
WAHV2,8631044,Wachapreague-VA,VA,-75.6866,37.6066,0.0021473,http://slosh.nws.noaa.gov/etss/station/etsurge2.0esri/index.php?stid=8631044&datum=MLLW&show=1-1-0-1-1,,,,,-75.685,37.6083,8.02,6.82,4.6,2.31,6.5,7.5,8,2.08,0.705,4.51,2,3,3.5
AXTV2,8634214,Alexandria-VA,VA,-77.0383,38.805,2.60E-05,http://slosh.nws.noaa.gov/etss/station/etsurge2.0esri/index.php?stid=8634214&datum=MLLW&show=1-1-0-1-1,,,,,-77.0383,38.805,1.63,1.63,0.12,-1.32, , , , , , , , , 
NCDV2,8635027,Dahlgren-VA,VA,-77.0367,38.32,2.62E-05,http://slosh.nws.noaa.gov/etss/station/etsurge2.0esri/index.php?stid=8635027&datum=MLLW&show=1-1-0-1-1,,,,,-77.0367,38.32,18.57,18.07,17.12,16.18,3.5,5,7,5.5,4.93,1.87,1.6,3.1,5.1
AQCV2,8634858,Aquia-Creek-VA,VA,-77.3533,38.4183,4.23E-05,http://slosh.nws.noaa.gov/etss/station/etsurge2.0esri/index.php?stid=8634858&datum=MLLW&show=1-1-0-1-1,,,,,-77.3533,38.4183,1.5,1.5,0.75, , , , , , , , , , 
QTGV2,8634689,Quantico-VA,VA,-77.2867,38.52,2.61E-05,http://slosh.nws.noaa.gov/etss/station/etsurge2.0esri/index.php?stid=8634689&datum=MLLW&show=1-1-0-1-1,,,,,-77.2867,38.52,1.62,1.62,0.86, , , , , , , , , , 
NMCV2,8638051,Messick-Point-VA,VA,-76.3183,37.1083,4.26E-05,,,,,,-76.3183,37.1083, , , , , , , , , , , , , 
FTMV2,8638288,Old-Point-Comfort-VA,VA,-76.315,37.0033,3.33E-05,,,,,,-76.315,37.0033, , , , , , , , , , , , , 
ELZV2,8638339,Western-Branch-VA,VA,-76.3983,36.8233,4.27E-05,,,,,,-76.3983,36.8233, ,30.36,28.77,27.24, , , , , , , , , 
JSFV2,8637712,Jamestown-VA,VA,-76.7915,37.2201,0.00021971,,,,,,-76.7917,37.22,22.99,22.27,21.19,20.12, , , , , , , , , 
MJBV2,8637444,Browns-Bay-VA,VA,-76.4275,37.3236,0.032185,,,,,,-76.4,37.3, ,2.68,1.29, , , , , , , , , , 
SAXV2,8633777,Saxis-Starling-Creek-VA,VA,-75.7275,37.9188,0.0029411,,,,,,-75.7283,37.9217, ,6.24,4.95,3.7, , , , , , , , , 
NSWV2,8632869,Gaskins-PT-VA,VA,-75.9353,37.4764,0.081624,,,,,,-75.9167,37.5567,4.17,3.73,2.69,1.68, , , , , , , , , 
NMDV2,8638409,Holidays-Points-VA,VA,-76.55,36.8383,3.33E-05,,,,,,-76.55,36.8383, , , , , , , , , , , , , 
CHIV2,8630440,Wallops-Island-VA,VA,-75.4078,37.9023,0.082319,,,,,,-75.4783,37.8417, ,2.81,1.34, , , , , , , , , , 
WLON7,8658120,Wilmington-NC,NC,-77.9533,34.2266,7.21E-05,http://slosh.nws.noaa.gov/etss/station/etsurge2.0esri/index.php?stid=8658120&datum=MLLW&show=1-1-0-1-1,-77.9533,34.2267,4.33E-05,http://polar.ncep.noaa.gov/estofs/nowcoast/estofs_atl/ts-8658120.png,-77.9533,34.2267,8.1,7.13,4.89,2.45,5.5,6.7,,2.174,0.747,4.68,0.8,2,
JMPN7,8658163,Wrightsville-Beach-NC,NC,-77.795,34.21,0.0076552,http://slosh.nws.noaa.gov/etss/station/etsurge2.0esri/index.php?stid=8658163&datum=MLLW&show=1-1-0-1-1,-77.7851,34.2128,0.0014243,http://polar.ncep.noaa.gov/estofs/nowcoast/estofs_atl/ts-8658163.png,-77.7867,34.2133,24.88,23.31,20.98,18.83,6,8,10,7.104,5.793,4.3,1.7,3.7,5.7
BFTN7,8656483,Beaufort-Duke-NC,NC,-76.67,34.72,0,http://slosh.nws.noaa.gov/etss/station/etsurge2.0esri/index.php?stid=8656483&datum=MLLW&show=1-1-0-1-1,-76.671,34.7203,0.00085911,http://polar.ncep.noaa.gov/estofs/nowcoast/estofs_atl/ts-8656483.png,-76.67,34.72,6.35,5.38,3.55,1.84,4.5,5.5,6.5,1.64,0.562,3.54,1,2,3
ORIN7,8652587,Oregon-Inlet-Marina-NC,NC,-75.5483,35.795,2.70E-05,http://slosh.nws.noaa.gov/etss/station/etsurge2.0esri/index.php?stid=8652587&datum=MLLW&show=1-1-0-1-1,-75.5521,35.7927,0.0038108,http://polar.ncep.noaa.gov/estofs/nowcoast/estofs_atl/ts-8652587.png,-75.5483,35.795,4.27,3.77,3.17,2.59,3,4.5,5.5,1.148,0.788,1.18,1.8,3.3,4.3
ZZZZZ,8654400,Cape-Hatteras-NC,NC,-75.635,35.2233,3.33E-05,http://slosh.nws.noaa.gov/etss/station/etsurge2.0esri/index.php?stid=8654400&datum=MLLW&show=1-1-0-1-1,,,,,-75.635,35.2233,7.54,6.34,4.46,2.81, , , , , , , , , 
DUKN7,8651370,Duck-Pier-NC,NC,-75.7466,36.1833,6.33E-05,http://slosh.nws.noaa.gov/etss/station/etsurge2.0esri/index.php?stid=8651370&datum=MLLW&show=1-1-0-1-1,-75.7463,36.1835,0.00036761,http://polar.ncep.noaa.gov/estofs/nowcoast/estofs_atl/ts-8651370.png,-75.7467,36.1833,23.52,22.27,20.35,18.58,5.5,6,6.5,6.787,5.663,3.69,1.8,2.3,2.8
ZZZZZ,8656502,Morehead-City-NC,NC,-76.7266,34.72,0.013644,http://slosh.nws.noaa.gov/etss/station/etsurge2.0esri/index.php?stid=8656502&datum=MLLW&show=1-1-0-1-1,,,,,-76.71,34.72,8,6.12,4.35,2.63, , , , , , , , , 
ZZZZZ,0000017,Holden-Beach-NC,NC,-78.3039,33.9133,,http://slosh.nws.noaa.gov/etss/station/etsurge2.0esri/index.php?stid=0000017&datum=MLLW&show=1-1-0-1-1,,,,,,,6.45,4,2, , , , , , , , , , 
HCGN7,8654467,Uscg-Station-Hatteras-NC,NC,-75.7033,35.2083,4.30E-05,http://slosh.nws.noaa.gov/etss/station/etsurge2.0esri/index.php?stid=8654467&datum=MLLW&show=1-1-0-1-1,-75.7026,35.211,0.0027262,http://polar.ncep.noaa.gov/estofs/nowcoast/estofs_atl/ts-8654467.png,-75.7033,35.2083,28.06,28.08,27.77,27.47,2.5,3.5,4.5,8.522,8.345,0.58,1.9,2.9,3.9
STHN7,8659084,Southport-NC,NC,-78.0183,33.9152,0.00021181,,,,,,-78.0183,33.915,16.535,15.4,12.99,10.67, , , , , , , , , 
SNSN7,8659897,Sunset-Beach-NC,NC,-78.5061,33.8651,0.00047729,,,,,,-78.5067,33.865,12.75,11.02,8.16,5.49, , , , , , , , , 
NITS1,8662245,Oyster-Landing-(N-Inlet-Estuary)-SC,SC,-79.1867,33.3517,4.34E-05,http://slosh.nws.noaa.gov/etss/station/etsurge2.0esri/index.php?stid=8662245&datum=MLLW&show=1-1-0-1-1,-79.83,32.9267,0.68614,http://polar.ncep.noaa.gov/estofs/nowcoast/estofs_atl/ts-8662245.png,-79.1867,33.3517,10.19,9.09,6.67,3.99,,,,2.776,1.215,5.12,,,
MROS1,8661070,Mytle-Beach-Springmaid-Pier-SC,SC,-78.9183,33.655,2.77E-05,http://slosh.nws.noaa.gov/etss/station/etsurge2.0esri/index.php?stid=8661070&datum=MLLW&show=1-1-0-1-1,-78.9165,33.6549,0.0015605,http://polar.ncep.noaa.gov/estofs/nowcoast/estofs_atl/ts-8661070.png,-78.9183,33.655,36.61,34.89,32,29.29,7.5,8.5,10,10.635,8.928,5.6,1.9,2.9,4.4
CHTS1,8665530,Charleston-SC,SC,-79.925,32.7816,0.0021269,http://slosh.nws.noaa.gov/etss/station/etsurge2.0esri/index.php?stid=8665530&datum=MLLW&show=1-1-0-1-1,-79.9219,32.7818,0.002159,http://polar.ncep.noaa.gov/estofs/nowcoast/estofs_atl/ts-8665530.png,-79.9233,32.78,10.03,8.53,5.69,2.76,7,7.5,8,2.6,0.843,5.77,1.2,1.7,2.2
NSNS1,8662793,N-Santee-Bridge-SC,SC,-79.385,33.21,0,,,,,,-79.385,33.21, , , , , , , , , , , , , 
WYSS1,8662549,S-Island-Winyah-SC,SC,-79.2683,33.2517,4.35E-05,,,,,,-79.2683,33.2517, ,6.68,4.56,2.56, , , , , , , , , 
HAGS1,8661991,Hagley-Waccamaw-River-SC,SC,-79.1817,33.435,2.78E-05,,,,,,-79.1817,33.435, ,5.68,3.72,1.84, , , , , , , , , 
WPIS1,8661703,Sandy-Island-SC,SC,-79.145,33.5067,3.33E-05,,,,,,-79.145,33.5067,7.8,6.93,5.09,3.25, , , , , , , , , 
PDBS1,8661093,Yauhannah_Bridge-SC,SC,-79.155,33.66,0,,,,,,-79.155,33.66, ,4.96,4.03,3.06, , , , , , , , , 
BUCS1,8661139,Bucksport-River-SC,SC,-79.095,33.6467,3.33E-05,,,,,,-79.095,33.6467,7.03,6.49,5.3,4.05, , , , , , , , , 
SOCS1,8660983,Socastee-Bridge-SC,SC,-79.005,33.6867,3.33E-05,,,,,,-79.005,33.6867, ,2.73,1.55,0.37, , , , , , , , , 
NIXS1,8660166,Nixon-Crossroads-SC,SC,-78.6483,33.855,2.77E-05,,,,,,-78.6483,33.855, ,5.49,3.12,0.94, , , , , , , , , 
FPKG1,8670870,FT-Pulaski-GA,GA,-80.9016,32.0333,0.0033671,http://slosh.nws.noaa.gov/etss/station/etsurge2.0esri/index.php?stid=8670870&datum=MLLW&show=1-1-0-1-1,-80.9014,32.0346,0.0021097,http://polar.ncep.noaa.gov/estofs/nowcoast/estofs_atl/ts-8670870.png,-80.9017,32.0367,12.83,11,7.32,3.5,9.2,9.6,10,3.353,1.066,7.5,1.7,2.1,2.5
SAPF1,8726520,Saint-Petersburg-FL,FL,-82.6266,27.76,5.90E-05,http://slosh.nws.noaa.gov/etss/station/etsurge2.0esri/index.php?stid=8726520&datum=MLLW&show=1-1-0-1-1,-82.6261,27.759,0.0011486,http://polar.ncep.noaa.gov/estofs/nowcoast/estofs_atl/ts-8726520.png,-82.6267,27.76,6.49,5.63,4.57,3.37,7.3,9.3,1.716,1.028,2.26,3,5,7,
VAKF1,8723214,Virginia-Key-FL,FL,-80.1617,25.73,0.0016669,http://slosh.nws.noaa.gov/etss/station/etsurge2.0esri/index.php?stid=8723214&datum=MLLW&show=1-1-0-1-1,-80.1617,25.7311,0.00060703,http://polar.ncep.noaa.gov/estofs/nowcoast/estofs_atl/ts-8723214.png,-80.1617,25.7317,13.28,12.36,11.25,10.14,3.5,3.9,4.7,3.763,3.096,2.19,1.3,1.7,2.5
PCBF1,8729210,Panama-City-Beach-FL,FL,-85.88,30.2133,0.0014406,http://slosh.nws.noaa.gov/etss/station/etsurge2.0esri/index.php?stid=8729210&datum=MLLW&show=1-1-0-1-1,-85.8784,30.2124,0.00093568,http://polar.ncep.noaa.gov/estofs/nowcoast/estofs_atl/ts-8729210.png,-85.8783,30.2133,29.24,24.8,27.67,27,4.5,6,8.656,8.236,1.38,1.4,3.1,4.6,
KYWF1,8724580,Key-West-FL,FL,-81.8067,24.555,0.0014856,http://slosh.nws.noaa.gov/etss/station/etsurge2.0esri/index.php?stid=8724580&datum=MLLW&show=1-1-0-1-1,-81.809,24.5559,0.0010969,http://polar.ncep.noaa.gov/estofs/nowcoast/estofs_atl/ts-8724580.png,-81.8083,24.555,7.21,6.37,5.45,4.56,2.9,3.4,3.9,1.941,1.39,1.81,1.1,1.6,2.1
NPSF1,8725110,Naples-FL,FL,-81.8066,26.13,0.0016677,http://slosh.nws.noaa.gov/etss/station/etsurge2.0esri/index.php?stid=8725110&datum=MLLW&show=1-1-0-1-1,-81.8103,26.1315,0.0032285,http://polar.ncep.noaa.gov/estofs/nowcoast/estofs_atl/ts-8725110.png,-81.8067,26.1317,5.96,5.04,3.79,2.14,4.4,5.4,6.4,1.527,0.653,2.87,1.5,2.5,3.5
PACF1,8729108,Panama-City-FL,FL,-85.6667,30.1517,0.028794,http://slosh.nws.noaa.gov/etss/station/etsurge2.0esri/index.php?stid=8729108&datum=MLLW&show=1-1-0-1-1,-85.6675,30.1524,0.028105,http://polar.ncep.noaa.gov/estofs/nowcoast/estofs_atl/ts-8729108.png,-85.7,30.1517,5.47,4.68,4.01,3.34,3.1,5.1,6.6,1.428,1.019,1.34,1.7,3.7,5.2
ZZZZZ,8720503,Red-Bay-Point-FL,FL,-81.6283,29.9783,0.0067094,http://slosh.nws.noaa.gov/etss/station/etsurge2.0esri/index.php?stid=8720503&datum=MLLW&show=1-1-0-1-1,,,,,-81.635,29.9817,0.58,0.43,-0.04,-0.57,2.6,3.1,4.1,0.13,-0.175,1,1.6,2.1,3.1
APCF1,8728690,Apalachicola-FL,FL,-84.9816,29.7266,0.0021191,http://slosh.nws.noaa.gov/etss/station/etsurge2.0esri/index.php?stid=8728690&datum=MLLW&show=1-1-0-1-1,-84.98,29.729,0.0040402,http://polar.ncep.noaa.gov/estofs/nowcoast/estofs_atl/ts-8728690.png,-84.98,29.725,6.37,5.9,5.2,4.29,3.8,5.6,8,1.799,1.307,1.61,2.1,3.9,6.3
CWBF1,8726724,Clearwater-Beach-FL,FL,-82.8316,27.9766,0.0017343,http://slosh.nws.noaa.gov/etss/station/etsurge2.0esri/index.php?stid=8726724&datum=MLLW&show=1-1-0-1-1,-82.8325,27.9785,0.000807,http://polar.ncep.noaa.gov/estofs/nowcoast/estofs_atl/ts-8726724.png,-82.8317,27.9783,5.44,4.49,3.22,1.73,7.8,9.8,1.369,0.528,2.76,3,5,7,
PMAF1,8726384,Port-Manatee-FL,FL,-82.5617,27.6383,0.0014473,http://slosh.nws.noaa.gov/etss/station/etsurge2.0esri/index.php?stid=8726384&datum=MLLW&show=1-1-0-1-1,-82.5633,27.6394,0.0010767,http://polar.ncep.noaa.gov/estofs/nowcoast/estofs_atl/ts-8726384.png,-82.5633,27.6383,3.26,2.39,1.37,0.21,7.2,9.2,0.731,0.062,2.19,3,5,7,
CKYF1,8727520,Cedar-Key-FL,FL,-83.0316,29.135,0.0021751,http://slosh.nws.noaa.gov/etss/station/etsurge2.0esri/index.php?stid=8727520&datum=MLLW&show=1-1-0-1-1,-83.0303,29.1332,0.00030621,http://polar.ncep.noaa.gov/estofs/nowcoast/estofs_atl/ts-8727520.png,-83.03,29.1333,6.65,5.6,3.84,1.8,5.2,,,1.708,0.55,3.8,1.4,,
OPTF1,8726607,Old-Port-Tampa-FL,FL,-82.5517,27.8567,0.0021802,http://slosh.nws.noaa.gov/etss/station/etsurge2.0esri/index.php?stid=8726607&datum=MLLW&show=1-1-0-1-1,-82.5542,27.858,0.00079919,http://polar.ncep.noaa.gov/estofs/nowcoast/estofs_atl/ts-8726607.png,-82.5533,27.8583,31.75,30.74,29.57,28.28,7.5,9.5,9.37,8.621,2.46,3,5,7,
FMRF1,8725520,Fort-Myers-FL,FL,-81.87,26.6467,0.0016333,http://slosh.nws.noaa.gov/etss/station/etsurge2.0esri/index.php?stid=8725520&datum=MLLW&show=1-1-0-1-1,-81.8714,26.6483,0.0012083,http://polar.ncep.noaa.gov/estofs/nowcoast/estofs_atl/ts-8725520.png,-81.87,26.6483,6.44,5.68,4.99,4.36,6.3,8.3,1.73,1.329,1.32,3,5,7,
TRDF1,8721604,Trident-Pier-FL,FL,-80.5917,28.415,0.0014366,http://slosh.nws.noaa.gov/etss/station/etsurge2.0esri/index.php?stid=8721604&datum=MLLW&show=1-1-0-1-1,-80.5935,28.4158,0.00081332,http://polar.ncep.noaa.gov/estofs/nowcoast/estofs_atl/ts-8721604.png,-80.5933,28.415,23.42,21.89,19.86,17.98,6.5,7.5,6.673,5.48,3.91,2.1,2.6,3.6,
MSBF1,8720226,Southbank-Riverwalk-FL,FL,-81.6583,30.32,2.88E-05,http://slosh.nws.noaa.gov/etss/station/etsurge2.0esri/index.php?stid=8720226&datum=MLLW&show=1-1-0-1-1,,,,,-81.6583,30.32,0.92,0.63,-0.25,-1.31,3.4,3.9,4.9,0.189,-0.418,1.99,1.4,1.9,2.9
BKBF1,8720357,I-295-Bridge-FL,FL,-81.6917,30.1917,4.41E-05,http://slosh.nws.noaa.gov/etss/station/etsurge2.0esri/index.php?stid=8720357&datum=MLLW&show=1-1-0-1-1,-81.6873,30.1917,0.0037916,http://polar.ncep.noaa.gov/estofs/nowcoast/estofs_atl/ts-8720357.png,-81.6917,30.1917,0.58,0.37,-0.11,-0.65,2.6,3.1,4.1,0.112,-0.198,1.02,1.6,2.1,3.1
PCLF1,8729840,Pensacola-FL,FL,-87.2116,30.4033,0.0013804,http://slosh.nws.noaa.gov/etss/station/etsurge2.0esri/index.php?stid=8729840&datum=MLLW&show=1-1-0-1-1,,,,,-87.21,30.4033,10.61,9.69,9.05,8.43,3.3,4.3,7.3,2.952,2.569,1.26,2,3,6
VCAF1,8723970,Vaca-Key-FL,FL,-81.105,24.7117,0.0015144,http://slosh.nws.noaa.gov/etss/station/etsurge2.0esri/index.php?stid=8723970&datum=MLLW&show=1-1-0-1-1,-81.1055,24.7139,0.0024749,http://polar.ncep.noaa.gov/estofs/nowcoast/estofs_atl/ts-8723970.png,-81.1067,24.7117,4.15,3.52,3.05,2.54,2,2.4,2.9,1.072,0.775,0.97,1,1.4,1.9
LKWF1,8722670,Lake-Worth-Pier-FL,FL,-80.0333,26.6117,0.0022311,http://slosh.nws.noaa.gov/etss/station/etsurge2.0esri/index.php?stid=8722670&datum=MLLW&show=1-1-0-1-1,-80.0333,26.6117,0.0022311,http://polar.ncep.noaa.gov/estofs/nowcoast/estofs_atl/ts-8722670.png,-80.035,26.6133,34.31,33.05,31.53,29.99,4.3,4.7,5.5,10.059,9.142,3.01,1.3,1.7,2.5
FRDF1,8720030,Fernandina-FL,FL,-81.4658,30.6714,0.00076562,http://slosh.nws.noaa.gov/etss/station/etsurge2.0esri/index.php?stid=8720030&datum=MLLW&show=1-1-0-1-1,-81.4665,30.672,0.0013844,http://polar.ncep.noaa.gov/estofs/nowcoast/estofs_atl/ts-8720030.png,-81.465,30.6717,10.07,8.26,4.99,1.7,8.6,9.1,10.3,2.517,0.518,6.56,2.1,2.6,3.8
RCYF1,8720625,Racy-Point-FL,FL,-81.5483,29.8017,0.0022508,http://slosh.nws.noaa.gov/etss/station/etsurge2.0esri/index.php?stid=8720625&datum=MLLW&show=1-1-0-1-1,,,,,-81.55,29.8,1.34,0.63,0.03,-0.63,2.6,3.1,4.1,0.193,-0.191,1.26,1.4,1.9,2.9
DMSF1,8720219,Dames-Point-FL,FL,-81.5583,30.3867,4.40E-05,http://slosh.nws.noaa.gov/etss/station/etsurge2.0esri/index.php?stid=8720219&datum=MLLW&show=1-1-0-1-1,,,,,-81.5583,30.3867,8.43,7.47,5.69,3.84,5.3,5.8,6.8,2.271,1.151,3.67,1.6,2.1,3.1
MYPF1,8720218,Mayport-(Bar-Pilots-Dock)-FL,FL,-81.43,30.3967,0.0021759,http://slosh.nws.noaa.gov/etss/station/etsurge2.0esri/index.php?stid=8720218&datum=MLLW&show=1-1-0-1-1,-81.43,30.3967,0.0021759,http://polar.ncep.noaa.gov/estofs/nowcoast/estofs_atl/ts-8720218.png,-81.4283,30.3983,15.64,14.03,11.54,9.07,6.8,7.5,8.5,4.271,2.763,4.95,1.9,2.6,3.6
MCYF1,8726667,Mckay-Bay-Entrance-FL,FL,-82.425,27.9133,3.33E-05,http://slosh.nws.noaa.gov/etss/station/etsurge2.0esri/index.php?stid=8726667&datum=MLLW&show=1-1-0-1-1,-82.425,27.9133,3.33E-05,http://polar.ncep.noaa.gov/estofs/nowcoast/estofs_atl/ts-8726667.png,-82.425,27.9133,3.95,2.94,1.72,0.27,7.7,9.7,0.895,0.081,2.67,3,5,7,
CIKA1,8737138,Chickasaw-Creek-AL,AL,-88.0733,30.7817,4.39E-05,http://slosh.nws.noaa.gov/etss/station/etsurge2.0esri/index.php?stid=8737138&datum=MLLW&show=1-1-0-1-1,,,,,-88.0733,30.7817,27.01,26.28,25.45,24.61,3.7,4.7,7.7,8.01,7.5,1.67,2,3,6
WBYA1,8732828,Weeks-Bay-AL,AL,-87.825,30.4167,3.33E-05,http://slosh.nws.noaa.gov/etss/station/etsurge2.0esri/index.php?stid=8732828&datum=MLLW&show=1-1-0-1-1,,,,,-87.825,30.4167,32.44,31.84,31.03,30.25,3.6,4.6,7.6,9.702,9.22,1.58,2,3,6
EFRA1,8735523,East-Fowl-River-Bridge-AL,AL,-88.1133,30.4433,4.40E-05,http://slosh.nws.noaa.gov/etss/station/etsurge2.0esri/index.php?stid=8735523&datum=MLLW&show=1-1-0-1-1,,,,,-88.1133,30.4433,15.8,14.96,14.23,13.51,3.4,4.4,7.4,4.568,4.147,1.38,2,3,6
OBLA1,8737048,Mobile-State-Docks-AL,AL,-88.0433,30.7083,0.0043521,http://slosh.nws.noaa.gov/etss/station/etsurge2.0esri/index.php?stid=8737048&datum=MLLW&show=1-1-0-1-1,-88.0396,30.7083,0.0033336,http://polar.ncep.noaa.gov/estofs/nowcoast/estofs_atl/ts-8737048.png,-88.04,30.705,3.84,3.13,2.3,1.48,3.6,4.6,7.6,0.954,0.46,1.62,2,3,6
MCGA1,8736897,Coast-Guard-Sector-Mobile-AL,AL,-88.0583,30.6483,4.40E-05,http://slosh.nws.noaa.gov/etss/station/etsurge2.0esri/index.php?stid=8736897&datum=MLLW&show=1-1-0-1-1,,,,,-88.0583,30.6483,30.91,30.3,29.49,28.69,3.6,4.6,7.6,9.235,8.744,1.61,2,3,6
BLBA1,8739803,Bayou-La-Batre-Bridge-AL,AL,-88.2467,30.405,0.0021822,http://slosh.nws.noaa.gov/etss/station/etsurge2.0esri/index.php?stid=8739803&datum=MLLW&show=1-1-0-1-1,,,,,-88.2483,30.4067,29.33,28.41,27.58,26.8,3.6,4.6,7.6,8.659,8.168,1.61,2,3,6
WFRA1,8738043,West-Fowl-River-Bridge-AL,AL,-88.1583,30.3767,4.40E-05,http://slosh.nws.noaa.gov/etss/station/etsurge2.0esri/index.php?stid=8738043&datum=MLLW&show=1-1-0-1-1,,,,,-88.1583,30.3767,21.95,21.15,20.32,19.42,3.6,4.6,7.6,6.47,5.98,1.61,2,3,6
DILA1,8735180,Dauphin-Island-AL,AL,-88.075,30.25,0,http://slosh.nws.noaa.gov/etss/station/etsurge2.0esri/index.php?stid=8735180&datum=MLLW&show=1-1-0-1-1,-88.0732,30.2502,0.0015376,http://polar.ncep.noaa.gov/estofs/nowcoast/estofs_atl/ts-8735180.png,-88.075,30.25,4.91,4.08,3.44,2.88,3.2,4.2,7.2,1.244,0.877,1.2,2,3,6
BYSA1,8735391,Dog-River-Bridge-AL,AL,-88.0867,30.565,0.0014064,http://slosh.nws.noaa.gov/etss/station/etsurge2.0esri/index.php?stid=8735391&datum=MLLW&show=1-1-0-1-1,-88.088,30.5652,0.00034983,http://polar.ncep.noaa.gov/estofs/nowcoast/estofs_atl/ts-8735391.png,-88.0883,30.565,31.43,30.58,29.76,28.97,3.6,4.6,7.6,9.361,8.88,1.58,2,3,6
GBRM6,8740166,Grand-Bay-NERR-Mississippi-Sound-MS,MS,-88.4029,30.4132,0.00040831,,,,,,-88.4033,30.4133, ,15.69,14.87,14.1,3.6,4.6,7.6,4.782,4.297,1.59,2,3,6
WYCM6,8747437,Waveland-MS,MS,-89.325,30.325,0,http://slosh.nws.noaa.gov/etss/station/etsurge2.0esri/index.php?stid=8747437&datum=MLLW&show=1-1-0-1-1,-89.3258,30.3264,0.001561,http://polar.ncep.noaa.gov/estofs/nowcoast/estofs_atl/ts-8747437.png,-89.325,30.325,5.07,4.18,3.31,2.41,3.7,4.7,9.2,1.257,0.728,1.74,2,3,7.5
ULAM6,8741041,Dock-E-MS,MS,-88.505,30.3467,0.0016333,http://slosh.nws.noaa.gov/etss/station/etsurge2.0esri/index.php?stid=8741041&datum=MLLW&show=1-1-0-1-1,,,,,-88.505,30.3483,24.07,23.2,22.4,21.64,3.6,4.6,7.6,7.072,6.596,1.56,2,3,6
PNLM6,8741533,Pascagoula-Noaa-Lab-MS,MS,-88.5617,30.3667,0.0021573,http://slosh.nws.noaa.gov/etss/station/etsurge2.0esri/index.php?stid=8741533&datum=MLLW&show=1-1-0-1-1,,,,,-88.5633,30.3683,24.27,23.42,22.64,21.89,3.5,4.5,7.5,7.142,6.674,1.54,2,3,6
BKTL1,8767961,Bulk-Terminal-LA,LA,-93.3,30.19,0,http://slosh.nws.noaa.gov/etss/station/etsurge2.0esri/index.php?stid=8767961&datum=MLLW&show=1-1-0-1-1,,,,,-93.3,30.19,24.69,24.44,23.85,23.1,,,,7.46,7.053,1.34,,,
NWCL1,8761927,New-Canal-Station-LA,LA,-90.1133,30.0267,4.41E-05,http://slosh.nws.noaa.gov/etss/station/etsurge2.0esri/index.php?stid=8761927&datum=MLLW&show=1-1-0-1-1,-90.1134,30.0272,0.00053645,http://polar.ncep.noaa.gov/estofs/nowcoast/estofs_atl/ts-8761927.png,-90.1133,30.0267,4.89,4.78,4.53,4.28,2.5,3.5,6.5,1.458,1.305,0.5,2,3,6
PSTL1,8760922,Pilots-Station-East-LA,LA,-89.4067,28.9317,4.43E-05,http://slosh.nws.noaa.gov/etss/station/etsurge2.0esri/index.php?stid=8760922&datum=MLLW&show=1-1-0-1-1,-89.4075,28.9322,0.00090353,http://polar.ncep.noaa.gov/estofs/nowcoast/estofs_atl/ts-8760922.png,-89.4067,28.9317,32.37,31.56,30.98,30.38,,,,9.621,9.259,1.19,,,
PILL1,8760721,Pilottown-LA,LA,-89.2583,29.1783,4.43E-05,http://slosh.nws.noaa.gov/etss/station/etsurge2.0esri/index.php?stid=8760721&datum=MLLW&show=1-1-0-1-1,-89.2583,29.1783,4.43E-05,http://polar.ncep.noaa.gov/estofs/nowcoast/estofs_atl/ts-8760721.png,-89.2583,29.1783,6.73,6.01,5.57,5.1,,,,1.833,1.556,0.91,,,
TESL1,8764044,Berwick-LA,LA,-91.2367,29.6667,0.0016336,http://slosh.nws.noaa.gov/etss/station/etsurge2.0esri/index.php?stid=8764044&datum=MLLW&show=1-1-0-1-1,-91.2375,29.6675,0.001104,http://polar.ncep.noaa.gov/estofs/nowcoast/estofs_atl/ts-8764044.png,-91.2367,29.6683,20.32,20.22,19.97,19.67,,,,6.162,5.996,0.54,,,
PTFL1,8762075,Port-Fourchon-LA,LA,-90.1983,29.1133,4.43E-05,http://slosh.nws.noaa.gov/etss/station/etsurge2.0esri/index.php?stid=8762075&datum=MLLW&show=1-1-0-1-1,-90.255,29.0639,0.069957,http://polar.ncep.noaa.gov/estofs/nowcoast/estofs_atl/ts-8762075.png,-90.1983,29.1133,31.64,30.82,30.23,29.58,3.2,4.2,7.2,9.393,9.016,1.24,2,3,6
FRWL1,8766072,Freshwater-Canal-Locks-LA,LA,-92.305,29.555,0.0033333,http://slosh.nws.noaa.gov/etss/station/etsurge2.0esri/index.php?stid=8766072&datum=MLLW&show=1-1-0-1-1,,,,,-92.305,29.5517,23.73,23.11,22.19,20.95,4,5,6,7.043,6.387,2.15,1.8,2.8,3.8
SHBL1,8761305,Shell-Beach-LA,LA,-89.6717,29.8667,0.0021619,http://slosh.nws.noaa.gov/etss/station/etsurge2.0esri/index.php?stid=8761305&datum=MLLW&show=1-1-0-1-1,-89.6728,29.8684,0.00044874,http://polar.ncep.noaa.gov/estofs/nowcoast/estofs_atl/ts-8761305.png,-89.6733,29.8683,33.62,32.74,32.04,31.31,3.4,4.4,7.4,9.979,9.542,1.43,2,3,6
AMRL1,8764227,Lawma-LA,LA,-91.3367,29.4483,0.0022165,http://slosh.nws.noaa.gov/etss/station/etsurge2.0esri/index.php?stid=8764227&datum=MLLW&show=1-1-0-1-1,-91.325,29.4443,0.01291,http://polar.ncep.noaa.gov/estofs/nowcoast/estofs_atl/ts-8764227.png,-91.3383,29.45,25.7,25.04,24.28,23.42,4,5,6,7.646,7.159,1.6,2.4,3.4,4.4
EINL1,8764314,Eugene-Island-North-of-LA,LA,-91.3839,29.3675,0.00096426,,,,,,-91.3833,29.3667,14.83,14.15,13.31,12.29,,,,4.336,3.736,1.97,,,
CAPL1,8768094,Calcasieu-Pass-LA,LA,-93.3417,29.7667,0.0021629,http://slosh.nws.noaa.gov/etss/station/etsurge2.0esri/index.php?stid=8768094&datum=MLLW&show=1-1-0-1-1,,,,,-93.3433,29.7683,29.46,28.8,28.06,26.87,4,5,6,8.779,8.19,1.93,2.1,3.1,4.1
GISL1,8761724,Grand-Isle-East-PT-LA,LA,-89.9566,29.2633,6.70E-05,http://slosh.nws.noaa.gov/etss/station/etsurge2.0esri/index.php?stid=8761724&datum=MLLW&show=1-1-0-1-1,,,,,-89.9567,29.2633,8.15,7.41,6.89,6.35,3.1,4.1,5.1,2.174,1.851,1.06,2,3,4
LCLL1,8767816,Lake-Charles-LA,LA,-93.2217,30.2233,4.41E-05,http://slosh.nws.noaa.gov/etss/station/etsurge2.0esri/index.php?stid=8767816&datum=MLLW&show=1-1-0-1-1,,,,,-93.2217,30.2233,28.18,27.8,27.18,26.39,3,4,6,8.482,8.055,1.4,1.6,2.6,4.6
SBPT2,8770570,Sabine-Pass-TX,TX,-93.87,29.73,0.0016667,http://slosh.nws.noaa.gov/etss/station/etsurge2.0esri/index.php?stid=8770570&datum=MLLW&show=1-1-0-1-1,-93.8681,29.7294,0.0019728,http://polar.ncep.noaa.gov/estofs/nowcoast/estofs_atl/ts-8770570.png,-93.87,29.7283,5.72,5.05,4.41,3.44,4,5,6,1.538,1.05,1.6,2.4,3.4,4.4
NUET2,8775244,Nueces-Bay-TX,TX,-97.485,27.8317,3.33E-05,http://slosh.nws.noaa.gov/etss/station/etsurge2.0esri/index.php?stid=8775244&datum=MLLW&show=1-1-0-1-1,,,,,-97.485,27.8317,25.63,25.03,24.72,24.36,,,,7.629,7.426,0.67,,,
NGLT2,8775283,Port Ingleside-TX,TX,-97.2033,27.8217,4.45E-05,,-97.05,27.8267,0.1357,http://polar.ncep.noaa.gov/estofs/nowcoast/estofs_atl/ts-8775283.png,-97.2033,27.8217,3.94,3.4,3.14,2.81,,,,1.037,0.856,0.59,,,
PORT2,8770475,Port-Arthur-TX,TX,-93.93,29.8667,3.33E-05,http://slosh.nws.noaa.gov/etss/station/etsurge2.0esri/index.php?stid=8770475&datum=MLLW&show=1-1-0-1-1,-93.9315,29.8673,0.0014112,http://polar.ncep.noaa.gov/estofs/nowcoast/estofs_atl/ts-8770475.png,-93.93,29.8667,6.21,5.69,5.25,4.65,,,,1.735,1.417,1.04,,,
MGPT2,8770613,Morgans-Point-TX,TX,-94.985,29.6817,3.33E-05,http://slosh.nws.noaa.gov/etss/station/etsurge2.0esri/index.php?stid=8770613&datum=MLLW&show=1-1-0-1-1,-94.985,29.6817,3.33E-05,http://polar.ncep.noaa.gov/estofs/nowcoast/estofs_atl/ts-8770613.png,-94.985,29.6817,7.27,6.53,5.93,5.22,,,,1.989,1.59,1.31,,,
RLIT2,8779280,Realitos-Peninsula-TX,TX,-97.285,26.2617,3.33E-05,http://slosh.nws.noaa.gov/etss/station/etsurge2.0esri/index.php?stid=8779280&datum=MLLW&show=1-1-0-1-1,,,,,-97.285,26.2617,16.69,16.18,15.93,15.62,,,,4.933,4.761,0.56,,,
RCPT2,8774770,Rockport-TX,TX,-97.0467,28.0217,4.45E-05,http://slosh.nws.noaa.gov/etss/station/etsurge2.0esri/index.php?stid=8774770&datum=MLLW&show=1-1-0-1-1,-97.0463,28.0212,0.0005576,http://polar.ncep.noaa.gov/estofs/nowcoast/estofs_atl/ts-8774770.png,-97.0467,28.0217,7.31,6.82,6.64,6.45,2.2,2.7,3.2,2.078,1.967,0.36,1.8,2.3,2.8
RTAT2,8775237,Port-Aransas-TX,TX,-97.0725,27.8397,0.00078828,,-97.0743,27.8406,0.0023582,http://polar.ncep.noaa.gov/estofs/nowcoast/estofs_atl/ts-8775237.png,-97.0717,27.84,6.29,5.63,5.25,4.6,2.6,3.1,3.6,1.755,1.44,1.03,1.6,2.1,2.6
ANPT2,8775241,Aransas- Aransas-Pass-TX,TX,-97.0391,27.8366,0.00068122,,,,,,-97.0383,27.8367,24.17,23.5,22.96,22.14,,,,7.164,6.747,1.37,,,
GTOT2,8771450,Galveston-Pier-21-TX,TX,-94.7934,29.31,5.81E-05,http://slosh.nws.noaa.gov/etss/station/etsurge2.0esri/index.php?stid=8771450&datum=MLLW&show=1-1-0-1-1,-94.7936,29.3107,0.00075272,http://polar.ncep.noaa.gov/estofs/nowcoast/estofs_atl/ts-8771450.png,-94.7933,29.31,6.52,5.79,5.21,4.38,4,,,1.765,1.336,1.41,2.6,,
TXPT2,8770822,Texas-Point-TX,TX,-93.8417,29.6883,4.42E-05,http://slosh.nws.noaa.gov/etss/station/etsurge2.0esri/index.php?stid=8770822&datum=MLLW&show=1-1-0-1-1,-93.8369,29.6781,0.011039,http://polar.ncep.noaa.gov/estofs/nowcoast/estofs_atl/ts-8770822.png,-93.8417,29.6883,6.01,5.07,4.29,3.11,,,,1.546,0.949,1.96,,,
ZZZZZ,8775270,Port-Aransas-TX,TX,-97.05,27.8266,6.67E-05,http://slosh.nws.noaa.gov/etss/station/etsurge2.0esri/index.php?stid=8775270&datum=MLLW&show=1-1-0-1-1,,,,,-97.05,27.8267,7.25,5.97,5.14,4.16, , , , , , , , , 
PCGT2,8779748,South-Padre-Island-CG-Station-tx,TX,-97.1675,26.0731,0.0015817,,-97.1767,26.0767,0.010323,http://polar.ncep.noaa.gov/estofs/nowcoast/estofs_atl/ts-8779748.png,-97.1667,26.0717,5.59,4.97,4.43,3.65,,,,1.514,1.114,1.31,,,
BZST2,8779749,SPI-Brazos-Santiago-TX,TX,-97.1548,26.0674,0.00074984,,,,,,-97.155,26.0667,26.54,25.72,25.13,24.29,,,,7.839,7.404,1.43,,,
ZZZZZ,8779750,Padre-Island-TX,TX,-97.1566,26.0683,6.85E-05,http://slosh.nws.noaa.gov/etss/station/etsurge2.0esri/index.php?stid=8779750&datum=MLLW&show=1-1-0-1-1,,,,,-97.1567,26.0683,3.97,3.13,2.48,1.55, , , , , , , , , 
TAQT2,8775296,Uss-Lexington-TX,TX,-97.39,27.8117,3.33E-05,http://slosh.nws.noaa.gov/etss/station/etsurge2.0esri/index.php?stid=8775296&datum=MLLW&show=1-1-0-1-1,-97.39,27.8117,3.33E-05,http://polar.ncep.noaa.gov/estofs/nowcoast/estofs_atl/ts-8775296.png,-97.39,27.8117,5.8,5.21,4.96,4.62,2.3,2.8,3.3,1.589,1.409,0.59,1.7,2.2,2.7
LUIT2,8771972,San-Luis-Pass-TX,TX,-95.1133,29.095,0.021968,http://slosh.nws.noaa.gov/etss/station/etsurge2.0esri/index.php?stid=8771972&datum=MLLW&show=1-1-0-1-1,,,,,-95.1317,29.08,6.13,5.39,4.91,4.24,,,,1.642,1.292,1.15,,,
MQTT2,8775870,Bob-Hall-Pier-TX,TX,-97.2167,27.58,2.95E-05,http://slosh.nws.noaa.gov/etss/station/etsurge2.0esri/index.php?stid=8775870&datum=MLLW&show=1-1-0-1-1,-97.2167,27.58,2.95E-05,http://polar.ncep.noaa.gov/estofs/nowcoast/estofs_atl/ts-8775870.png,-97.2167,27.58,23.45,22.47,21.77,20.84,2.9,3.4,3.9,6.85,6.353,1.63,1.3,1.8,2.3
FCGT2,8772447,Freeport-TX,TX,-95.3,28.9333,0.010139,http://slosh.nws.noaa.gov/etss/station/etsurge2.0esri/index.php?stid=8772447&datum=MLLW&show=1-1-0-1-1,-95.3028,28.9425,0.0012623,http://polar.ncep.noaa.gov/estofs/nowcoast/estofs_atl/ts-8772447.png,-95.3017,28.9433,30.19,29.45,28.62,27.65,4,,,8.976,8.427,1.8,2.2,,
NCHT2,8770777,Manchester-TX,TX,-95.265,29.725,0.0016667,http://slosh.nws.noaa.gov/etss/station/etsurge2.0esri/index.php?stid=8770777&datum=MLLW&show=1-1-0-1-1,-95.2431,29.7191,0.020469,http://polar.ncep.noaa.gov/estofs/nowcoast/estofs_atl/ts-8770777.png,-95.265,29.7267,7.85,7.14,6.4,5.52,,,,2.212,1.708,1.65,,,
EMAT2,8773146,Matagorda-City-TX,TX,-95.9133,28.71,2.92E-05,http://slosh.nws.noaa.gov/etss/station/etsurge2.0esri/index.php?stid=8773146&datum=MLLW&show=1-1-0-1-1,,,,,-95.9133,28.71,31.4,31.28,31.12,30.86,,,,9.548,9.425,0.4,,,
VCAT2,8773259,Por-Lavaca-TX,TX,-96.6098,28.6406,0.00059235,,-96.595,28.64,0.013165,http://polar.ncep.noaa.gov/estofs/nowcoast/estofs_atl/ts-8773259.png,-96.61,28.64,4.66,3.97,3.55,3.05,2.5,3,3.5,1.211,0.931,0.92,1.6,2.1,2.6
PCNT2,8773701,Port-O'Connor-TX,TX,-96.3956,28.4459,0.0012639,,-96.3883,28.4517,0.0089135,http://polar.ncep.noaa.gov/estofs/nowcoast/estofs_atl/ts-8773701.png,-96.3967,28.4467,13.02,12.08,11.74,11.34,2.3,2.8,3.3,3.681,3.455,0.74,1.6,2.1,2.6
MBET2,8773767,Matagorda-Bay-Entrance-Channel-TX,TX,-96.3301,28.4269,0.00024338,,,,,,-96.33,28.4267,27.07,26.62,26.12,25.39,,,,8.149,7.768,1.25,,,
PACT2,8775792,Packery-Channel-TX,TX,-97.2367,27.6333,0.0033001,http://slosh.nws.noaa.gov/etss/station/etsurge2.0esri/index.php?stid=8775792&datum=MLLW&show=1-1-0-1-1,-97.2375,27.6341,0.0041446,http://polar.ncep.noaa.gov/estofs/nowcoast/estofs_atl/ts-8775792.png,-97.2367,27.63,3.76,3.31,3.13,2.94,2.2,2.7,3.2,1.01,0.897,0.37,1.8,2.3,2.8
AWRT2,8774230,Aransas-Wildlife-Refuge-TX,TX,-96.795,28.2283,0.0014688,http://slosh.nws.noaa.gov/etss/station/etsurge2.0esri/index.php?stid=8774230&datum=MLLW&show=1-1-0-1-1,,,,,-96.7967,28.2283,29.92,29.41,29.22,29.07,,,,8.964,8.86,0.34,,,
ZZZZZ,8770733,Lynchburg-Landing-TX,TX,-95.0783,29.765,2.89E-05,http://slosh.nws.noaa.gov/etss/station/etsurge2.0esri/index.php?stid=8770733&datum=MLLW&show=1-1-0-1-1,,,,,-95.0783,29.765,6.7,6.11,5.44,4.61,,,,1.863,1.405,1.5,,,
SGNT2,8772985,Sargent-TX,TX,-95.6167,28.7717,4.43E-05,http://slosh.nws.noaa.gov/etss/station/etsurge2.0esri/index.php?stid=8772985&datum=MLLW&show=1-1-0-1-1,,,,,-95.6167,28.7717,32.35,31.82,31.56,31.24,,,,9.723,9.525,0.65,,,
SDRT2,8773037,Seadrift-TX,TX,-96.7124,28.4069,0.00070716,,-96.7144,28.4047,0.0031185,http://polar.ncep.noaa.gov/estofs/nowcoast/estofs_atl/ts-8773037.png,-96.7117,28.4067,1.99,1.6,1.42,1.22,2.2,2.7,3.2,0.487,0.371,0.38,1.8,2.3,2.8
EPTT2,8771013,Eagle-Point-TX,TX,-94.9183,29.48,2.90E-05,http://slosh.nws.noaa.gov/etss/station/etsurge2.0esri/index.php?stid=8771013&datum=MLLW&show=1-1-0-1-1,-94.917,29.4783,0.002039,http://polar.ncep.noaa.gov/estofs/nowcoast/estofs_atl/ts-8771013.png,-94.9183,29.48,6.17,5.32,4.81,4.22,4,,,1.623,1.285,1.11,2.9,,
RBBT2,8770520,Rainbow-Bridge-TX,TX,-93.8817,29.98,0.0033088,http://slosh.nws.noaa.gov/etss/station/etsurge2.0esri/index.php?stid=8770520&datum=MLLW&show=1-1-0-1-1,-93.8807,29.9806,0.0038301,http://polar.ncep.noaa.gov/estofs/nowcoast/estofs_atl/ts-8770520.png,-93.885,29.9817,5.42,4.96,4.48,3.9,,,,1.511,1.189,1.06,,,
HIST2,8770808,High-Island-TX,TX,-94.39,29.5933,0.0017,http://slosh.nws.noaa.gov/etss/station/etsurge2.0esri/index.php?stid=8770808&datum=MLLW&show=1-1-0-1-1,,,,,-94.39,29.595,15.04,14.73,14.1,13.32,,,,4.535,4.124,1.35,,,
PTIT2,8779770,Port-Isabel-TX,TX,-97.215,26.06,0.0016667,http://slosh.nws.noaa.gov/etss/station/etsurge2.0esri/index.php?stid=8779770&datum=MLLW&show=1-1-0-1-1,-97.1976,26.0744,0.020119,http://polar.ncep.noaa.gov/estofs/nowcoast/estofs_atl/ts-8779770.png,-97.215,26.0617,6.04,5.23,4.67,3.86,2.5,,,1.594,1.175,1.37,1.1,,
GNJT2,8771341,Galveston-Bay-Entrance-TX,TX,-94.7233,29.3567,0.0014821,http://slosh.nws.noaa.gov/etss/station/etsurge2.0esri/index.php?stid=8771341&datum=MLLW&show=1-1-0-1-1,-94.7253,29.3543,0.0023377,http://polar.ncep.noaa.gov/estofs/nowcoast/estofs_atl/ts-8771341.png,-94.725,29.3567,11.56,10.78,10.08,9.11,,,,3.286,2.776,1.67,,,
ZZZZZ,8771510,Galveston-Pleasure-Pier-TX,TX,-94.7883,29.285,2.91E-05,http://slosh.nws.noaa.gov/etss/station/etsurge2.0esri/index.php?stid=8771510&datum=MLLW&show=1-1-0-1-1,,,,,-94.7883,29.285,6.47,5.55,4.6,3.42, , , , , , , , , 
GRRT2,8771486,Galveston-Railroad-Bridge-TX,TX,-94.8965,29.3024,0.00073309,,,,,,-94.8967,29.3017,21.15,20.8,20.29,19.54,,,,6.337,5.96,1.24,,,
RLOT2,8770971,Rollover-Pass-TX,TX,-94.5133,29.515,0.0028717,http://slosh.nws.noaa.gov/etss/station/etsurge2.0esri/index.php?stid=8770971&datum=MLLW&show=1-1-0-1-1,-94.5082,29.5157,0.0017201,http://polar.ncep.noaa.gov/estofs/nowcoast/estofs_atl/ts-8770971.png,-94.51,29.515,5.23,4.78,4.13,3.33,,,,1.504,1.094,1.35,,,
CLBP4,9752235,Culebra-PR,PR,-65.3025,18.3009,0.0011101,,,,,,-65.3017,18.3017,28.91,28.54,27.95,27.42,,,,8.699,8.357,1.12,,,
YABP4,9754228,Yabucoa-Harbor-PR,PR,-65.8317,18.055,0.0015529,http://slosh.nws.noaa.gov/etss/station/etsurge2.0esri/index.php?stid=9754228&datum=MLLW&show=1-1-0-1-1,-65.825,18.0479,0.010648,http://polar.ncep.noaa.gov/estofs/nowcoast/estofs_atl/ts-9754228.png,-65.8333,18.055,12.1,11.7,11.33,10.98,,,,3.565,3.347,0.72,,,
SJNP4,9755371,San-Juan-PR,PR,-66.115,18.4583,0.0023215,http://slosh.nws.noaa.gov/etss/station/etsurge2.0esri/index.php?stid=9755371&datum=MLLW&show=1-1-0-1-1,-66.1206,18.4752,0.015688,http://polar.ncep.noaa.gov/estofs/nowcoast/estofs_atl/ts-9755371.png,-66.1167,18.46,5.59,4.96,4.15,3.39,,,,1.512,1.032,1.57,,,
MGZP4,9759394,Mayaguez-PR,PR,-67.16,18.22,0.0022987,http://slosh.nws.noaa.gov/etss/station/etsurge2.0esri/index.php?stid=9759394&datum=MLLW&show=1-1-0-1-1,-67.1692,18.214,0.0112,http://polar.ncep.noaa.gov/estofs/nowcoast/estofs_atl/ts-9759394.png,-67.1583,18.2183,5.26,4.79,4.05,3.41,,,,8.96,8.716,0.8,,,
FRDP4,9753216,Fajardo-PR,PR,-65.63,18.335,0,http://slosh.nws.noaa.gov/etss/station/etsurge2.0esri/index.php?stid=9753216&datum=MLLW&show=1-1-0-1-1,-65.6287,18.3365,0.0018969,http://polar.ncep.noaa.gov/estofs/nowcoast/estofs_atl/ts-9753216.png,-65.63,18.335,25.36,24.78,24,23.27,,,,7.553,7.094,1.51,,,
VQSP4,9752619,Isabel-Segunda-PR,PR,-65.4433,18.1517,4.60E-05,http://slosh.nws.noaa.gov/etss/station/etsurge2.0esri/index.php?stid=9752619&datum=MLLW&show=1-1-0-1-1,-65.4472,18.1556,0.0053833,http://polar.ncep.noaa.gov/estofs/nowcoast/estofs_atl/ts-9752619.png,-65.4433,18.1517,25.57,25.13,24.48,23.9,,,,7.661,7.284,1.24,,,
MGIP4,9759110,Magueyes-Island-PR,PR,-67.045,17.97,0.0015854,http://slosh.nws.noaa.gov/etss/station/etsurge2.0esri/index.php?stid=9759110&datum=MLLW&show=1-1-0-1-1,-67.046,17.97,0.00063415,http://polar.ncep.noaa.gov/estofs/nowcoast/estofs_atl/ts-9759110.png,-67.0467,17.97,4.66,4.25,3.91,3.58,,,,1.294,1.091,0.67,,,
MISP4,9759938,Mona-Island-PR,PR,-67.9383,18.09,3.17E-05,http://slosh.nws.noaa.gov/etss/station/etsurge2.0esri/index.php?stid=9759938&datum=MLLW&show=1-1-0-1-1,-67.9936,18.107,0.055214,http://polar.ncep.noaa.gov/estofs/nowcoast/estofs_atl/ts-9759938.png,-67.9383,18.09,29.76,29.42,29.02,28.6,,,,8.96,8.716,0.8,,,
AROP4,9757809,Arecibo-PR,PR,-66.7017,18.48,3.16E-05,http://slosh.nws.noaa.gov/etss/station/etsurge2.0esri/index.php?stid=9757809&datum=MLLW&show=1-1-0-1-1,-66.7021,18.4814,0.0014591,http://polar.ncep.noaa.gov/estofs/nowcoast/estofs_atl/ts-9757809.png,-66.7017,18.48,24.49,23.86,22.93,22.11,,,,7.274,6.738,1.76,,,
ESPP4,9752695,Esperanza-PR,PR,-65.47,18.0933,0.0015846,http://slosh.nws.noaa.gov/etss/station/etsurge2.0esri/index.php?stid=9752695&datum=MLLW&show=1-1-0-1-1,-65.4754,18.086,0.00816,http://polar.ncep.noaa.gov/estofs/nowcoast/estofs_atl/ts-9752695.png,-65.4717,18.0933,27.15,26.77,26.43,26.03,,,,8.161,7.935,0.74,,,
LAMV3,9751381,Lameshur-Bay-VI,VI,-64.7233,18.3167,0.0022962,http://slosh.nws.noaa.gov/etss/station/etsurge2.0esri/index.php?stid=9751381&datum=MLLW&show=1-1-0-1-1,-64.729,18.3127,0.006805,http://polar.ncep.noaa.gov/estofs/nowcoast/estofs_atl/ts-9751381.png,-64.725,18.3183,30.14,29.72,29.29,28.89,,,,9.057,8.807,0.82,,,
LTBV3,9751401,Lime-Tree-Bay-VI,VI,-64.7533,17.6933,0.0017003,http://slosh.nws.noaa.gov/etss/station/etsurge2.0esri/index.php?stid=9751401&datum=MLLW&show=1-1-0-1-1,-64.7541,17.695,0.00073039,http://polar.ncep.noaa.gov/estofs/nowcoast/estofs_atl/ts-9751401.png,-64.7533,17.695,35.17,34.79,34.45,34.08,,,,10.605,10.389,0.71,,,
CHSV3,9751364,Christiansted-Harbor-VI,VI,-64.705,17.75,0.0071712,http://slosh.nws.noaa.gov/etss/station/etsurge2.0esri/index.php?stid=9751364&datum=MLLW&show=1-1-0-1-1,-64.705,17.753,0.008968,http://polar.ncep.noaa.gov/estofs/nowcoast/estofs_atl/ts-9751364.png,-64.6983,17.7467,28.16,27.81,27.44,27.07,,,,8.475,8.25,0.74,,,
CHAV3,9751639,Charlotte-Amalie-VI,VI,-64.92,18.335,0,http://slosh.nws.noaa.gov/etss/station/etsurge2.0esri/index.php?stid=9751639&datum=MLLW&show=1-1-0-1-1,-64.9271,18.3315,0.007585,http://polar.ncep.noaa.gov/estofs/nowcoast/estofs_atl/ts-9751639.png,-64.92,18.335,6.45,6.04,5.63,5.25,,,,1.841,1.601,0.79,,,
BEPB6,2695540,Bermuda-St.-Georges-Island-BERMUDA,,-64.7033,32.3733,4.36E-05,http://slosh.nws.noaa.gov/etss/station/etsurge2.0esri/index.php?stid=2695540&datum=MLLW&show=1-1-0-1-1,,,,,-64.7033,32.3733,7.21,6.2,4.7,3.38,,,,1.891,1.029,2.83,,,
ZZZZZ,9414131,Pillar-Point-Harbor-CA,CA,-122.4817,37.5017,4.25E-05,http://slosh.nws.noaa.gov/etss/station/etsurge2.0esri/index.php?stid=9414131&datum=MLLW&show=1-1-0-1-1,,,,,-122.4817,37.5017,7.32,5.64,3.03,0.04, , , , , , , , , 
PSLC1,9412110,Port-San-Luis-CA,CA,-120.76,35.1767,0.0099849,http://slosh.nws.noaa.gov/etss/station/etsurge2.0esri/index.php?stid=9412110&datum=MLLW&show=1-1-0-1-1,-120.76,35.1767,0.0099849,http://polar.ncep.noaa.gov/estofs/nowcoast/estofs_pac/ts-9412110.png,-120.7533,35.1683,11.35,9.58,7.05,4.25,7,8,,2.919,1.296,5.32,1.7,2.7,
ZZZZZ,9415218,Mare-Is-Naval-Shipyard-CA,CA,-122.25,38.07,0,http://slosh.nws.noaa.gov/etss/station/etsurge2.0esri/index.php?stid=9415218&datum=MLLW&show=1-1-0-1-1,,,,,-122.25,38.07,25,8.59,5.91,2.85, , , , , , , , , 
NTBC1,9411340,Santa-Barbara-CA,CA,-119.685,34.4083,0.0084817,http://slosh.nws.noaa.gov/etss/station/etsurge2.0esri/index.php?stid=9411340&datum=MLLW&show=1-1-0-1-1,-119.685,34.4083,0.0084817,http://polar.ncep.noaa.gov/estofs/nowcoast/estofs_pac/ts-9411340.png,-119.6933,34.4033,10.36,8.56,5.95,3.16,7,8,,2.609,0.964,5.4,1.6,2.6,
FTPC1,9414290,San-Francisco-CA,CA,-122.465,37.8067,3.33E-05,http://slosh.nws.noaa.gov/etss/station/etsurge2.0esri/index.php?stid=9414290&datum=MLLW&show=1-1-0-1-1,-122.465,37.8067,3.33E-05,http://polar.ncep.noaa.gov/estofs/nowcoast/estofs_pac/ts-9414290.png,-122.465,37.8067,13.24,11.82,9.1,5.98,,,3.602,1.822,5.84,1.2,,,
MZXC1,9415102,Martinez-amorco-Pier-CA,CA,-122.125,38.0333,0.0017,http://slosh.nws.noaa.gov/etss/station/etsurge2.0esri/index.php?stid=9415102&datum=MLLW&show=1-1-0-1-1,-122.125,38.0333,0.001667,http://polar.ncep.noaa.gov/estofs/nowcoast/estofs_pac/ts-9415102.png,-122.125,38.035,41.54,40.46,37.96,35.1,,,12.332,10.698,5.36,,,,
ANVC1,9416841,Arena-Cove-CA,CA,-123.7083,38.9133,0.0031228,http://slosh.nws.noaa.gov/etss/station/etsurge2.0esri/index.php?stid=9416841&datum=MLLW&show=1-1-0-1-1,-123.708,38.9133,0.0033211,http://polar.ncep.noaa.gov/estofs/nowcoast/estofs_pac/ts-9416841.png,-123.7117,38.915,36.59,34.81,32.08,28.94,,,10.609,8.822,5.86,2,,,
MTYC1,9413450,Monterey-CA,CA,-121.8867,36.605,0.0013112,http://slosh.nws.noaa.gov/etss/station/etsurge2.0esri/index.php?stid=9413450&datum=MLLW&show=1-1-0-1-1,-121.888,36.605,0.00026759,http://polar.ncep.noaa.gov/estofs/nowcoast/estofs_pac/ts-9413450.png,-121.8883,36.605,10.42,8.72,6.21,3.38,,,,2.657,1.031,5.33,,,
HBYC1,9418767,North-Spit-CA,CA,-124.2167,40.7667,4.18E-05,http://slosh.nws.noaa.gov/etss/station/etsurge2.0esri/index.php?stid=9418767&datum=MLLW&show=1-1-0-1-1,-124.217,40.7667,0.00025465,http://polar.ncep.noaa.gov/estofs/nowcoast/estofs_pac/ts-9418767.png,-124.2167,40.7667,23.41,21.4,18.25,14.55,9.5,,6.524,4.434,6.86,1.9,2.6,,
ZZZZZ,9417426,Noyo-Harbor-CA,CA,-123.805,39.425,0,http://slosh.nws.noaa.gov/etss/station/etsurge2.0esri/index.php?stid=9417426&datum=MLLW&show=1-1-0-1-1,,,,,-123.805,39.425,7.84,5.93,3.11,-0.17, , , , , , , , , 
PRYC1,9415020,Point-Reyes-CA,CA,-122.975,37.9967,0.0013138,http://slosh.nws.noaa.gov/etss/station/etsurge2.0esri/index.php?stid=9415020&datum=MLLW&show=1-1-0-1-1,-122.9767,37.9961,0.00056728,http://polar.ncep.noaa.gov/estofs/nowcoast/estofs_pac/ts-9415020.png,-122.9767,37.9967,11.41,9.72,7.06,3.96,,,2.964,1.206,5.77,,,,
RCMC1,9414863,Richmond-CA,CA,-122.4,37.9283,0.0093215,http://slosh.nws.noaa.gov/etss/station/etsurge2.0esri/index.php?stid=9414863&datum=MLLW&show=1-1-0-1-1,-122.4,37.9283,0.0093215,http://polar.ncep.noaa.gov/estofs/nowcoast/estofs_pac/ts-9414863.png,-122.41,37.9233,19.16,17.63,14.83,11.57,,,5.373,3.526,6.06,,,,
ZZZZZ,9414764,Oakland-Inner-Harbor-CA,CA,-122.2817,37.795,2.63E-05,http://slosh.nws.noaa.gov/etss/station/etsurge2.0esri/index.php?stid=9414764&datum=MLLW&show=1-1-0-1-1,,,,,-122.2817,37.795,12.25,10.79,7.74,4.42, , , , , , , , , 
CECC1,9419750,Crescent-City-CA,CA,-124.1833,41.745,0.0012684,http://slosh.nws.noaa.gov/etss/station/etsurge2.0esri/index.php?stid=9419750&datum=MLLW&show=1-1-0-1-1,-124.183,41.745,0.0014922,http://polar.ncep.noaa.gov/estofs/nowcoast/estofs_pac/ts-9419750.png,-124.185,41.745,12.56,10.56,7.39,3.69,,,3.219,1.124,6.87,2,,,
OHBC1,9410660,Los-Angeles-CA,CA,-118.2717,33.72,0.0013585,http://slosh.nws.noaa.gov/etss/station/etsurge2.0esri/index.php?stid=9410660&datum=MLLW&show=1-1-0-1-1,-118.272,33.72,0.001109,http://polar.ncep.noaa.gov/estofs/nowcoast/estofs_pac/ts-9410660.png,-118.2733,33.72,11.17,9.32,6.65,3.83,7,8,,2.84,1.167,5.49,1.5,2.5,
HRVC1,9411406,Oil-Platform-Harvest-CA,CA,-120.6717,34.4683,0.008217,http://slosh.nws.noaa.gov/etss/station/etsurge2.0esri/index.php?stid=9411406&datum=MLLW&show=1-1-0-1-1,-120.673,34.4683,0.0071452,http://polar.ncep.noaa.gov/estofs/nowcoast/estofs_pac/ts-9411406.png,-120.6817,34.4683,51.98,50.07,47.55,44.83,7,8,,15.262,13.664,5.24,1.8,2.8,
AAMC1,9414750,Alameda-CA,CA,-122.2983,37.7717,0.0013442,http://slosh.nws.noaa.gov/etss/station/etsurge2.0esri/index.php?stid=9414750&datum=MLLW&show=1-1-0-1-1,-122.2983,37.7717,0.0013442,http://polar.ncep.noaa.gov/estofs/nowcoast/estofs_pac/ts-9414750.png,-122.3,37.7717,11.31,9.93,6.78,3.33,,,3.027,1.016,6.6,,,,
RTYC1,9414523,Redwood-City-CA,CA,-122.21,37.5067,0.0013226,http://slosh.nws.noaa.gov/etss/station/etsurge2.0esri/index.php?stid=9414523&datum=MLLW&show=1-1-0-1-1,-122.21,37.5067,0.0013226,http://polar.ncep.noaa.gov/estofs/nowcoast/estofs_pac/ts-9414523.png,-122.2117,37.5067,16.38,14.93,11.13,6.73,,,4.551,2.05,8.21,,,,
ZZZZZ,9414509,Dumbarton-Bridge-San-Fansisco-Bay-CA,CA,-122.115,37.505,0.0016667,http://slosh.nws.noaa.gov/etss/station/etsurge2.0esri/index.php?stid=9414509&datum=MLLW&show=1-1-0-1-1,,,,,-122.115,37.5067,25,20.38,16.53,12.01, , , , , , , , , 
RYAC1,9414575,Coyote-Creek-CA,CA,-122.0217,37.465,0.0012964,http://slosh.nws.noaa.gov/etss/station/etsurge2.0esri/index.php?stid=9414575&datum=MLLW&show=1-1-0-1-1,-122.023,37.465,0.00026458,http://polar.ncep.noaa.gov/estofs/nowcoast/estofs_pac/ts-9414575.png,-122.0233,37.465,11.36,8.64,4.55,-0.37,,,2.632,-0.112,9,,,,
SDBC1,9410170,San-Diego-CA,CA,-117.1733,32.7133,4.36E-05,http://slosh.nws.noaa.gov/etss/station/etsurge2.0esri/index.php?stid=9410170&datum=MLLW&show=1-1-0-1-1,-117.1736,32.7142,0.00089524,http://polar.ncep.noaa.gov/estofs/nowcoast/estofs_pac/ts-9410170.png,-117.1733,32.7133,11.51,9.51,6.73,3.79,7.5,,,2.9,1.155,5.72,1.8,,
LJAC1,9410230,La-Jolla-CA,CA,-117.2567,32.8667,4.35E-05,http://slosh.nws.noaa.gov/etss/station/etsurge2.0esri/index.php?stid=9410230&datum=MLLW&show=1-1-0-1-1,-117.258,32.8667,0.0011204,http://polar.ncep.noaa.gov/estofs/nowcoast/estofs_pac/ts-9410230.png,-117.2567,32.8667,11.51,9.69,7.1,4.37,7,,,2.955,1.331,5.33,1.7,,
PCOC1,9415144,Port-Chicago-CA,CA,-122.0383,38.0567,0.0021638,http://slosh.nws.noaa.gov/etss/station/etsurge2.0esri/index.php?stid=9415144&datum=MLLW&show=1-1-0-1-1,-122.0395,38.056,0.0010747,http://polar.ncep.noaa.gov/estofs/nowcoast/estofs_pac/ts-9415144.png,-122.04,38.055,10.15,8.9,6.55,3.99,,,2.713,1.215,4.91,,,,
ICAC1,9410840,Santa-Monica-CA,CA,-118.5,34.0083,3.33E-05,http://slosh.nws.noaa.gov/etss/station/etsurge2.0esri/index.php?stid=9410840&datum=MLLW&show=1-1-0-1-1,-118.5,34.0083,3.33E-05,http://polar.ncep.noaa.gov/estofs/nowcoast/estofs_pac/ts-9410840.png,-118.5,34.0083,9.71,7.87,5.23,2.44,7,8,,2.398,0.745,5.42,1.6,2.6,
ASTO3,9439040,Astoria-OR,OR,-123.7667,46.2083,0.0019863,http://slosh.nws.noaa.gov/etss/station/etsurge2.0esri/index.php?stid=9439040&datum=MLLW&show=1-1-0-1-1,-123.7683,46.2073,0.00063375,http://polar.ncep.noaa.gov/estofs/nowcoast/estofs_pac/ts-9439040.png,-123.7683,46.2067,12.81,10.84,6.74,2.23,14.5,,3.305,0.681,8.61,3.4,5.9,,
TLBO3,9437540,Garibaldi-OR,OR,-123.9183,45.5533,0.0017002,http://slosh.nws.noaa.gov/etss/station/etsurge2.0esri/index.php?stid=9437540&datum=MLLW&show=1-1-0-1-1,-123.9189,45.5545,0.00063832,http://polar.ncep.noaa.gov/estofs/nowcoast/estofs_pac/ts-9437540.png,-123.9183,45.555,13.93,12.3,8.48,3.99,,,,3.749,1.216,8.31,,,
SBEO3,9435380,South-Beach-Yaquina-R.-OR,OR,-124.0433,44.625,0.0012099,http://slosh.nws.noaa.gov/etss/station/etsurge2.0esri/index.php?stid=9435380&datum=MLLW&show=1-1-0-1-1,-124.043,44.625,0.0014234,http://polar.ncep.noaa.gov/estofs/nowcoast/estofs_pac/ts-9435380.png,-124.045,44.625,15.16,12.91,9.02,4.57,12,14.5,,3.935,1.392,8.34,3.7,6.2,
WAUO3,9439099,Wauna-OR,OR,-123.405,46.16,0.0028475,,,,,,-123.4083,46.1617,10.36,7.99,4.4,1,10.9,,11.9,2.436,0.305,6.99,3.9,,4.9
SHNO3,9439201,St-Helens-OR,OR,-122.7967,45.865,0.0016668,http://slosh.nws.noaa.gov/etss/station/etsurge2.0esri/index.php?stid=9439201&datum=MLLW&show=1-1-0-1-1,,,,,-122.7967,45.8633,8.11,5.29,3.54,2.05,13.5,16,19,1.611,0.626,3.23,10.2,12.7,15.7
CHAO3,9432780,Charleston-OR,OR,-124.3217,43.345,2.42E-05,http://slosh.nws.noaa.gov/etss/station/etsurge2.0esri/index.php?stid=9432780&datum=MLLW&show=1-1-0-1-1,-124.322,43.345,0.00024241,http://polar.ncep.noaa.gov/estofs/nowcoast/estofs_pac/ts-9432780.png,-124.3217,43.345,13.5,11.38,7.84,3.76,,,,3.469,1.146,7.62,,,
PORO3,9431647,Port-Orford-OR,OR,-124.4967,42.74,0.0020535,http://slosh.nws.noaa.gov/etss/station/etsurge2.0esri/index.php?stid=9431647&datum=MLLW&show=1-1-0-1-1,-124.4983,42.739,0.00066712,http://polar.ncep.noaa.gov/estofs/nowcoast/estofs_pac/ts-9431647.png,-124.4983,42.7383,32.45,30.33,26.98,23.05,,,,9.246,7.025,7.29,,,
FRDW1,9449880,Friday-Harbor-WA,WA,-123.01,48.5467,0.0027856,http://slosh.nws.noaa.gov/etss/station/etsurge2.0esri/index.php?stid=9449880&datum=MLLW&show=1-1-0-1-1,-123.01,48.5467,0.0027856,http://polar.ncep.noaa.gov/estofs/nowcoast/estofs_pac/ts-9449880.png,-123.0133,48.545,13.57,11.61,8.4,3.85,,,,3.538,1.174,7.75,,,
VAPW1,9440083,Vancouver-WA,WA,-122.6967,45.6317,4.07E-05,http://slosh.nws.noaa.gov/etss/station/etsurge2.0esri/index.php?stid=9440083&datum=MLLW&show=1-1-0-1-1,,,,,-122.6967,45.6317,7.7,4.97,3.13,1.78,14.1,18.1,23.1,1.516,0.544,3.19,10.9,14.9,19.9
CPTW1,9440581,Cape-Disappointment-WA,WA,-124.0463,46.281,0.0010641,,,,,,-124.0467,46.28,62.67,60.33,56.62,52.57,,,,18.389,16.025,7.76,,,
TOKW1,9440910,Toke-Point-WA,WA,-123.965,46.7083,0.0011433,http://slosh.nws.noaa.gov/etss/station/etsurge2.0esri/index.php?stid=9440910&datum=MLLW&show=1-1-0-1-1,-123.9669,46.7075,0.00084855,http://polar.ncep.noaa.gov/estofs/nowcoast/estofs_pac/ts-9440910.png,-123.9667,46.7083,15.96,13.44,9.3,4.52,11,14.5,,4.097,1.378,8.92,2.1,5.6,
WPTW1,9441102,Westport-WA,WA,-124.105,46.9033,3.33E-05,http://slosh.nws.noaa.gov/etss/station/etsurge2.0esri/index.php?stid=9441102&datum=MLLW&show=1-1-0-1-1,-124.1051,46.9043,0.00096908,http://polar.ncep.noaa.gov/estofs/nowcoast/estofs_pac/ts-9441102.png,-124.105,46.9033,14.34,12.14,7.87,3,11.5,,,3.684,0.895,9.15,2.3,,
NEAW1,9443090,Neah-Bay-WA,WA,-124.6167,48.3683,0.010131,http://slosh.nws.noaa.gov/etss/station/etsurge2.0esri/index.php?stid=9443090&datum=MLLW&show=1-1-0-1-1,-124.6117,48.3667,0.0074377,http://polar.ncep.noaa.gov/estofs/nowcoast/estofs_pac/ts-9443090.png,-124.6017,48.37,12.59,9.96,6.32,2,,,,3.035,0.61,7.96,,,
EBSW1,9447130,Seattle-WA,WA,-122.3383,47.605,0.0033334,http://slosh.nws.noaa.gov/etss/station/etsurge2.0esri/index.php?stid=9447130&datum=MLLW&show=1-1-0-1-1,-122.3393,47.6026,0.0011384,http://polar.ncep.noaa.gov/estofs/nowcoast/estofs_pac/ts-9447130.png,-122.3383,47.6017,21.2,19.3,14.58,7.94,13.5,,,5.882,2.419,11.36,2.1,,
SKAW1,9440569,Skamokawa-WA,WA,-123.4517,46.2667,0.0047621,http://slosh.nws.noaa.gov/etss/station/etsurge2.0esri/index.php?stid=9440569&datum=MLLW&show=1-1-0-1-1,-123.452,46.2667,0.0046149,http://polar.ncep.noaa.gov/estofs/nowcoast/estofs_pac/ts-9440569.png,-123.4567,46.27,10.16,7.97,4.21,0.48,,,2.43,0.146,7.49,,,,
PTAW1,9444090,Port-Angeles-WA,WA,-123.44,48.125,0.0011125,http://slosh.nws.noaa.gov/etss/station/etsurge2.0esri/index.php?stid=9444090&datum=MLLW&show=1-1-0-1-1,-123.44,48.125,0.0011125,http://polar.ncep.noaa.gov/estofs/nowcoast/estofs_pac/ts-9444090.png,-123.4417,48.125,39.38,37.38,34.56,30.31,,,,11.393,9.24,7.06,,,
CHYW1,9449424,Cherry-Point-WA,WA,-122.7583,48.8633,3.99E-05,http://slosh.nws.noaa.gov/etss/station/etsurge2.0esri/index.php?stid=9449424&datum=MLLW&show=1-1-0-1-1,-122.758,48.8633,0.0002218,http://polar.ncep.noaa.gov/estofs/nowcoast/estofs_pac/ts-9449424.png,-122.7583,48.8633,17.3,15.49,11.62,6.34,,,,4.721,1.933,9.15,,,
LOPW1,9440422,Longview-WA,WA,-122.9533,46.105,0.0016668,http://slosh.nws.noaa.gov/etss/station/etsurge2.0esri/index.php?stid=9440422&datum=MLLW&show=1-1-0-1-1,,,,,-122.9533,46.1067,10.06,7.08,4.58,2.53,11.2,12.7,15.7,2.159,0.771,4.55,6.7,8.2,11.2
TCNW1,9446484,Tacoma-WA,WA,-122.4133,47.2667,0.0033001,http://slosh.nws.noaa.gov/etss/station/etsurge2.0esri/index.php?stid=9446484&datum=MLLW&show=1-1-0-1-1,-122.4133,47.2667,0.0033001,http://polar.ncep.noaa.gov/estofs/nowcoast/estofs_pac/ts-9446484.png,-122.4133,47.27,14.4,12.39,7.46,0.62,,,,3.778,0.182,11.8,,,
PTWW1,9444900,Port-Townsend-WA,WA,-122.75,48.1117,0.0068736,http://slosh.nws.noaa.gov/etss/station/etsurge2.0esri/index.php?stid=9444900&datum=MLLW&show=1-1-0-1-1,-122.758,48.1117,0.0021097,http://polar.ncep.noaa.gov/estofs/nowcoast/estofs_pac/ts-9444900.png,-122.76,48.1133,13.35,11.88,8.35,3.36,11.5,,,3.621,1.025,8.52,3,,
LAPW1,9442396,La-Push-WA,WA,-124.6367,47.9133,4.01E-05,http://slosh.nws.noaa.gov/etss/station/etsurge2.0esri/index.php?stid=9442396&datum=MLLW&show=1-1-0-1-1,-124.637,47.9133,0.00022589,http://polar.ncep.noaa.gov/estofs/nowcoast/estofs_pac/ts-9442396.png,-124.6367,47.9133,15.74,13.73,9.79,5.28,,,,4.185,1.609,8.45,,,
ZZZZZ,9446705,Yoman-Point-Anderson-Island-WA,WA,-122.675,47.18,0,,,,,,-122.675,47.18,16.45,14.62,8.85,1.14, , , , , , , , , 
ZZZZZ,9440572,Jetty-A-Columbia-River-WA,WA,-124.072,46.2733,0.024924,http://slosh.nws.noaa.gov/etss/station/etsurge2.0esri/index.php?stid=9440572&datum=MLLW&show=1-1-0-1-1,,,,,-124.0367,46.2683, ,12.6,8.69,5.54, , , , , , , , , 
ZZZZZ,9449932,Armitage-Island-WA,WA,-122.797,48.535,0.00022072,,,,,,-122.7967,48.535,13.47,11.89,8.71,4.05, , , , , , , , , 
ZZZZZ,9449711,Rosario-WA,WA,-122.87,48.6467,,,,,,,,, , , , , , , , , , , , , 
ZZZZZ,9448682,Swinomish-WA,WA,-122.513,48.4583,0.00022355,,,,,,-122.5133,48.4583,35.54,33.61,29.92,24.88, , , , , , , , , 
ZZZZZ,9449988,Telegraph-Bay-WA,WA,-122.805,48.4433,3.33E-05,,,,,,-122.805,48.4433,7.61,6.18,3.68,-0.03, , , , , , , , , 
ZZZZZ,9449856,Kanaka-Bay-San-Juan-Island-WA,WA,-123.083,48.485,0.00022094,http://slosh.nws.noaa.gov/etss/station/etsurge2.0esri/index.php?stid=9449856&datum=MLLW&show=1-1-0-1-1,,,,,-123.0833,48.485,28.19,26.56,23.62,19.23, , , , , , , , , 
ZZZZZ,9449746,Waldron-Island-WA,WA,-123.037,48.6867,0.00022257,,,,,,-123.0367,48.6867,28.72,27.43,24.61,20.41, , , , , , , , , 
ZZZZZ,9447883,Green-Bank-WA,WA,-122.57,48.105,0,http://slosh.nws.noaa.gov/etss/station/etsurge2.0esri/index.php?stid=9447883&datum=MLLW&show=1-1-0-1-1,,,,,-122.57,48.105,26.14,23.69,18.95,12.34, , , , , , , , , 
ZZZZZ,9449639,Point-Roberts-WA,WA,-123.083,48.975,0.0002188,,,,,,-123.0833,48.975,28.37,26.27,22.3,16.48, , , , , , , , , 
ZZZZZ,9441644,Tahola-WA,WA,-124.285,47.3483,3.33E-05,,,,,,-124.285,47.3483, , , , , , , , , , , , , 
ZZZZZ,9449911,Upright-Head-WA,WA,-122.885,48.5717,3.33E-06,http://slosh.nws.noaa.gov/etss/station/etsurge2.0esri/index.php?stid=9449911&datum=MLLW&show=1-1-0-1-1,,,,,-122.885,48.5717,29.93,28.02,24.8,20.18, , , , , , , , , 
ZZZZZ,9446291,Wauna-WA,WA,-122.633,47.3783,0.00022574,http://slosh.nws.noaa.gov/etss/station/etsurge2.0esri/index.php?stid=9446291&datum=MLLW&show=1-1-0-1-1,,,,,-122.6333,47.3783,24.26,21.7,15.83,8.19, , , , , , , , , 
RDDA2,9491094,Red-Dog-Dock-AK,AK,-164.1502,67.5628,0.03532,http://slosh.nws.noaa.gov/etss/station/etsurge2.0esri/index.php?stid=9491094&datum=MLLW&show=1-1-0-1-1,,,,,-164.0633,67.575,6.25,6.08,5.64,5.2,,,1.853,1.584,0.88,,,,
KECA2,9450460,Ketchikan-AK,AK,-131.625,55.3333,0.0018885,http://slosh.nws.noaa.gov/etss/station/etsurge2.0esri/index.php?stid=9450460&datum=MLLW&show=1-1-0-1-1,-131.6262,55.3318,0.00029706,http://polar.ncep.noaa.gov/estofs/nowcoast/estofs_pac/ts-9450460.png,-131.6267,55.3317,25.91,21.64,14.26,6.19,21,22,22.5,6.595,1.887,15.45,5.6,6.6,7.1
ZZZZZ,9468132,St.-Michael-Norton-Sound-AK,AK,-162.0389,63.4761,0.0055728,http://slosh.nws.noaa.gov/etss/station/etsurge2.0esri/index.php?stid=9468132&datum=MLLW&show=1-1-0-1-1,,,,,-162.0267,63.475,5.71,3.9,1.95, , , , , , , , , , 
ZZZZZ,9465261,Clarks-Point-Nushagak-Bay-AK,AK,-158.5516,58.8483,4.80E-05,http://slosh.nws.noaa.gov/etss/station/etsurge2.0esri/index.php?stid=9465261&datum=MLLW&show=1-1-0-1-1,,,,,-158.5517,58.8483,24.12,20.7,10.35, , , , , , , , , , 
VCVA2,9464212,Village-Cove-AK,AK,-170.285,57.125,0,http://slosh.nws.noaa.gov/etss/station/etsurge2.0esri/index.php?stid=9464212&datum=MLLW&show=1-1-0-1-1,,,,,-170.285,57.125,5.35,4.56,3.22,1.26,,,,1.389,0.384,3.3,,,
OVIA2,9455500,Seldovia-AK,AK,-151.72,59.44,0,http://slosh.nws.noaa.gov/etss/station/etsurge2.0esri/index.php?stid=9455500&datum=MLLW&show=1-1-0-1-1,-151.7199,59.4405,0.00050258,http://polar.ncep.noaa.gov/estofs/nowcoast/estofs_pac/ts-9455500.png,-151.72,59.44,29.89,24.83,16.34,6.78,,,7.565,2.066,18.04,,,,
CRVA2,9454050,Cordova-AK,AK,-145.7533,60.5583,0.00083628,http://slosh.nws.noaa.gov/etss/station/etsurge2.0esri/index.php?stid=9454050&datum=MLLW&show=1-1-0-1-1,-145.753,60.5583,0.00098364,http://polar.ncep.noaa.gov/estofs/nowcoast/estofs_pac/ts-9454050.png,-145.755,60.5583,22.44,18.88,13.03,6.29,,,,5.754,1.916,12.59,,,
ATKA2,9461710,Atka-AK,AK,-174.1733,52.2317,0.0010009,http://slosh.nws.noaa.gov/etss/station/etsurge2.0esri/index.php?stid=9461710&datum=MLLW&show=1-1-0-1-1,-174.173,52.2317,0.00081731,http://polar.ncep.noaa.gov/estofs/nowcoast/estofs_pac/ts-9461710.png,-174.1717,52.2317,31.83,30.36,28.91,26.95,,,,9.25,8.219,3.38,,,
UNLA2,9462620,Unalaska-AK,AK,-166.4822,53.9463,0.07453,http://slosh.nws.noaa.gov/etss/station/etsurge2.0esri/index.php?stid=9462620&datum=MLLW&show=1-1-0-1-1,-166.537,53.88,0.0017684,http://polar.ncep.noaa.gov/estofs/nowcoast/estofs_pac/ts-9462620.png,-166.54,53.88,7.82,6.2,4.68,2.6,,,,1.89,0.792,3.6,,,
ALIA2,9457804,Alitak-AK,AK,-154.2467,56.8983,0.001861,http://slosh.nws.noaa.gov/etss/station/etsurge2.0esri/index.php?stid=9457804&datum=MLLW&show=1-1-0-1-1,-154.247,56.8983,0.0017883,http://polar.ncep.noaa.gov/estofs/nowcoast/estofs_pac/ts-9457804.png,-154.2483,56.8967,20.77,17.24,11.71,5.57,,,,5.255,1.699,11.67,,,
ZZZZZ,9490424,Kotzebue-AK,AK,-162.6,66.925,0.024416,http://slosh.nws.noaa.gov/etss/station/etsurge2.0esri/index.php?stid=9490424&datum=MLLW&show=1-1-0-1-1,,,,,-162.5817,66.9017,6.44,6.16,5.86,5.5, , , , , , , , , 
PLXA2,9451054,Port-Alexander-AK,AK,-134.4466,56.4137,0.20051,http://slosh.nws.noaa.gov/etss/station/etsurge2.0esri/index.php?stid=9451054&datum=MLLW&show=1-1-0-1-1,-134.647,56.2467,0.00018818,http://polar.ncep.noaa.gov/estofs/nowcoast/estofs_pac/ts-9451054.png,-134.6467,56.2467,17.78,14.68,9.48,3.75,13.6,14.2,,4.473,1.144,10.92,2.7,3.3,
YATA2,9453220,Yakutat-AK,AK,-139.735,59.5483,0.00084534,http://slosh.nws.noaa.gov/etss/station/etsurge2.0esri/index.php?stid=9453220&datum=MLLW&show=1-1-0-1-1,-139.7334,59.5485,0.00017006,http://polar.ncep.noaa.gov/estofs/nowcoast/estofs_pac/ts-9453220.png,-139.7333,59.5483,14.26,11.27,6.49,1.19,14,14.5,15,3.506,0.436,10.07,3.9,4.4,4.9
KGCA2,9459881,King-Cove-AK,AK,-162.3267,55.0617,0.0017001,http://slosh.nws.noaa.gov/etss/station/etsurge2.0esri/index.php?stid=9459881&datum=MLLW&show=1-1-0-1-1,-162.327,55.0617,0.0017107,http://polar.ncep.noaa.gov/estofs/nowcoast/estofs_pac/ts-9459881.png,-162.3267,55.06,13.04,10.85,7.71,4.02,,,,3.306,1.224,6.83,,,
ADKA2,9461380,Adak-Island-AK,AK,-176.6317,51.8633,3.92E-05,http://slosh.nws.noaa.gov/etss/station/etsurge2.0esri/index.php?stid=9461380&datum=MLLW&show=1-1-0-1-1,-176.632,51.8633,0.00020853,http://polar.ncep.noaa.gov/estofs/nowcoast/estofs_pac/ts-9461380.png,-176.6317,51.8633,8.55,6.67,5.09,2.96,,,,2.034,0.903,3.71,,,
NKTA2,9455760,Nikiski-AK,AK,-151.3983,60.6833,3.71E-05,http://slosh.nws.noaa.gov/etss/station/etsurge2.0esri/index.php?stid=9455760&datum=MLLW&show=1-1-0-1-1,-151.398,60.6833,0.00016658,http://polar.ncep.noaa.gov/estofs/nowcoast/estofs_pac/ts-9455760.png,-151.3983,60.6833,32.21,27.18,17.89,6.6,,,8.285,2.012,20.58,,,,
ZZZZZ,0000007,Cape-Romanzof-AK,AK,-166.0833,61.8166,,http://slosh.nws.noaa.gov/etss/station/etsurge2.0esri/index.php?stid=0000007&datum=MLLW&show=1-1-0-1-1,,,,,,,8.01,6.52,3.26,0.03, , , , , , , , , 
ZZZZZ,0000006,Kwikluak-Pass-Yukon-River-AK,AK,-164.85,62.6166,,http://slosh.nws.noaa.gov/etss/station/etsurge2.0esri/index.php?stid=0000006&datum=MLLW&show=1-1-0-1-1,,,,,,,1.94,1.58,0.7, , , , , , , , , , 
ZZZZZ,0000005,Kawanak-Pass-Ent-Yukon-R-AK,AK,-164.685,63.0544,,http://slosh.nws.noaa.gov/etss/station/etsurge2.0esri/index.php?stid=0000005&datum=MLLW&show=1-1-0-1-1,,,,,,,2.43,1.98,0.97,0.01, , , , , , , , , 
ZZZZZ,0000004,Apoon-Mouth-Yukon-River-AK,AK,-163.3236,63.0595,,http://slosh.nws.noaa.gov/etss/station/etsurge2.0esri/index.php?stid=0000004&datum=MLLW&show=1-1-0-1-1,,,,,,,5.71,3.92,1.95,0.32, , , , , , , , , 
ZZZZZ,0000003,Carolyn-Is-Golovnin-Bay-AK,AK,-162.8666,64.45,,http://slosh.nws.noaa.gov/etss/station/etsurge2.0esri/index.php?stid=0000003&datum=MLLW&show=1-1-0-1-1,,,,,,,2.63,1.8,0.9,0.14, , , , , , , , , 
ZZZZZ,0000002,Port-Clarence-AK,AK,-166.5654,65.2466,,http://slosh.nws.noaa.gov/etss/station/etsurge2.0esri/index.php?stid=0000002&datum=MLLW&show=1-1-0-1-1,,,,,,,11.5,8.74,4.5,-0.06, , , , , , , , , 
ZZZZZ,0000001,Point-Barrow-AK,AK,-156.3666,71.3666,,http://slosh.nws.noaa.gov/etss/station/etsurge2.0esri/index.php?stid=0000001&datum=MLLW&show=1-1-0-1-1,,,,,,,0.46,0.35,0.18, , , , , , , , , , 
ZZZZZ,0000009,Apokak-Creek-Ent-AK,AK,-162.1666,60.1333,,http://slosh.nws.noaa.gov/etss/station/etsurge2.0esri/index.php?stid=0000009&datum=MLLW&show=1-1-0-1-1,,,,,,,13.59,11.07,4.67,0.02, , , , , , , , , 
ZZZZZ,0000008,St-Lrnce-Niyrakpak-Lagn-Ent-AK,AK,-171.3833,63.6166,,http://slosh.nws.noaa.gov/etss/station/etsurge2.0esri/index.php?stid=0000008&datum=MLLW&show=1-1-0-1-1,,,,,,,1.46,1.19,0.62,0.01, , , , , , , , , 
ELFA2,9452634,Elfin-Cove-AK,AK,-136.3433,58.1933,0.0024573,http://slosh.nws.noaa.gov/etss/station/etsurge2.0esri/index.php?stid=9452634&datum=MLLW&show=1-1-0-1-1,-136.3469,58.1947,0.00032423,http://polar.ncep.noaa.gov/estofs/nowcoast/estofs_pac/ts-9452634.png,-136.3467,58.195,23.67,20.47,15.19,9.45,,,6.24,2.881,11.02,,,,
VDZA2,9454240,Valdez-AK,AK,-146.7638,61.0014,0.22983,http://slosh.nws.noaa.gov/etss/station/etsurge2.0esri/index.php?stid=9454240&datum=MLLW&show=1-1-0-1-1,-146.362,61.125,0.00064387,http://polar.ncep.noaa.gov/estofs/nowcoast/estofs_pac/ts-9454240.png,-146.3633,61.125,22.38,18.89,13.24,6.75,,,,5.758,2.056,12.15,,,
SKTA2,9452400,Skagway-AK,AK,-135.3267,59.45,0.00083021,http://slosh.nws.noaa.gov/etss/station/etsurge2.0esri/index.php?stid=9452400&datum=MLLW&show=1-1-0-1-1,-135.327,59.45,0.00067772,http://polar.ncep.noaa.gov/estofs/nowcoast/estofs_pac/ts-9452400.png,-135.3283,59.45,23.03,18.71,10.81,1.98,26,27,,5.81,0.709,16.74,9.3,10.3,
SWLA2,9455090,Seward-AK,AK,-149.4267,60.12,1.66E-05,http://slosh.nws.noaa.gov/etss/station/etsurge2.0esri/index.php?stid=9455090&datum=MLLW&show=1-1-0-1-1,-149.4267,60.12,1.66E-05,http://polar.ncep.noaa.gov/estofs/nowcoast/estofs_pac/ts-9455090.png,-149.4267,60.12,20.07,16.77,11.7,6.14,,,,5.111,1.872,10.63,,,
KDAA2,9457292,Kodiak-Island-AK,AK,-152.5117,57.7317,0.0019106,http://slosh.nws.noaa.gov/etss/station/etsurge2.0esri/index.php?stid=9457292&datum=MLLW&show=1-1-0-1-1,-152.512,57.7317,0.001843,http://polar.ncep.noaa.gov/estofs/nowcoast/estofs_pac/ts-9457292.png,-152.5133,57.73,36.74,34.04,29.77,25.27,,,,10.383,7.708,8.78,,,
ZZZZZ,0000014,Naknek-River-Ent-#13-AK,AK,-157.2297,58.7102,,http://slosh.nws.noaa.gov/etss/station/etsurge2.0esri/index.php?stid=0000014&datum=MLLW&show=1-1-0-1-1,,,,,,,28.16,22.91,11.13,0.08, , , , , , , , , 
ZZZZZ,0000015,Egegik-River-Ent-AK,AK,-157.6225,58.2149,,http://slosh.nws.noaa.gov/etss/station/etsurge2.0esri/index.php?stid=0000015&datum=MLLW&show=1-1-0-1-1,,,,,,,22.33,18.17,9.52,0.09, , , , , , , , , 
ZZZZZ,0000016,Port-Heiden-AK,AK,-158.7333,56.9333,,http://slosh.nws.noaa.gov/etss/station/etsurge2.0esri/index.php?stid=0000016&datum=MLLW&show=1-1-0-1-1,,,,,,,15.05,12.27,7.73,0.11, , , , , , , , , 
ZZZZZ,0000010,Popokamute-AK,AK,-162.25,60.0666,,http://slosh.nws.noaa.gov/etss/station/etsurge2.0esri/index.php?stid=0000010&datum=MLLW&show=1-1-0-1-1,,,,,,,11.89,9.68,4.16,0.02, , , , , , , , , 
ZZZZZ,0000011,Kuskokwak-Creek-Ent-AK,AK,-162.1666,60.0333,,http://slosh.nws.noaa.gov/etss/station/etsurge2.0esri/index.php?stid=0000011&datum=MLLW&show=1-1-0-1-1,,,,,,,13.83,11.27,4.74,0.02, , , , , , , , , 
ZZZZZ,0000012,Eek-Channel-off-Quinhagak-AK,AK,-162.25,59.75,,http://slosh.nws.noaa.gov/etss/station/etsurge2.0esri/index.php?stid=0000012&datum=MLLW&show=1-1-0-1-1,,,,,,,13.84,11.28,4.74,0.02, , , , , , , , , 
ZZZZZ,0000013,Goodnews-Bay-Ent-AK,AK,-161.8166,59.05,,http://slosh.nws.noaa.gov/etss/station/etsurge2.0esri/index.php?stid=0000013&datum=MLLW&show=1-1-0-1-1,,,,,,,9.22,7.52,3.5,0.02, , , , , , , , , 
PMOA2,9463502,Port-Moller-AK,AK,-160.614,55.956,0.036864,http://slosh.nws.noaa.gov/etss/station/etsurge2.0esri/index.php?stid=9463502&datum=MLLW&show=1-1-0-1-1,,,,,-160.5733,55.985,41.83,39.6,35.02,29.19,,,,12.071,8.897,10.41,,,
ITKA2,9451600,Sitka-AK,AK,-135.704,56.8981,0.25016,http://slosh.nws.noaa.gov/etss/station/etsurge2.0esri/index.php?stid=9451600&datum=MLLW&show=1-1-0-1-1,-135.342,57.0517,0.00018433,http://polar.ncep.noaa.gov/estofs/nowcoast/estofs_pac/ts-9451600.png,-135.3417,57.0517,17.3,14.46,9.81,4.52,13,15,17,4.407,1.379,9.94,3.1,5.1,7.1
PRDA2,9497645,Prudhoe-Bay-AK,AK,-148.401,70.4187,0.044361,http://slosh.nws.noaa.gov/etss/station/etsurge2.0esri/index.php?stid=9497645&datum=MLLW&show=1-1-0-1-1,,,,,-148.5317,70.4117,37.34,36.54,36.18,35.84,,,11.137,10.923,0.7,,,,
OLSA2,9462450,Nikolski-AK,AK,-168.9,52.9539,0.022015,http://slosh.nws.noaa.gov/etss/station/etsurge2.0esri/index.php?stid=9462450&datum=MLLW&show=1-1-0-1-1,-168.8713,52.9406,0.0006394,http://polar.ncep.noaa.gov/estofs/nowcoast/estofs_pac/ts-9462450.png,-168.8717,52.94,9.26,8.07,6.36,4.09,,,,2.465,1.241,4.02,,,
ANTA2,9455920,Anchorage-AK,AK,-149.89,61.2383,0.0016333,http://slosh.nws.noaa.gov/etss/station/etsurge2.0esri/index.php?stid=9455920&datum=MLLW&show=1-1-0-1-1,-149.89,61.2383,0.0016333,http://polar.ncep.noaa.gov/estofs/nowcoast/estofs_pac/ts-9455920.png,-149.89,61.2367,40.93,35.43,22.74,6.27,,,10.8,1.911,29.16,,,,
JNEA2,9452210,Juneau-AK,AK,-134.412,58.2983,0.0010515,http://slosh.nws.noaa.gov/etss/station/etsurge2.0esri/index.php?stid=9452210&datum=MLLW&show=1-1-0-1-1,-134.412,58.2983,0.0010515,http://polar.ncep.noaa.gov/estofs/nowcoast/estofs_pac/ts-9452210.png,-134.41,58.2983,23.8,19.46,11.73,3.15,23.5,25,28,6.001,1.03,16.31,7.2,8.7,11.7
NMTA2,9468756,Nome-Norton-Sound-AK,AK,-165.43,64.5,0.0065983,http://slosh.nws.noaa.gov/etss/station/etsurge2.0esri/index.php?stid=9468756&datum=MLLW&show=1-1-0-1-1,,,,,-165.44,64.495,5.37,5.24,4.54,3.72,,,1.589,1.125,1.52,,,,
SNDA2,9459450,Sand-Point-AK,AK,-160.502,55.3367,0.0050901,http://slosh.nws.noaa.gov/etss/station/etsurge2.0esri/index.php?stid=9459450&datum=MLLW&show=1-1-0-1-1,-160.502,55.3367,0.0050901,http://polar.ncep.noaa.gov/estofs/nowcoast/estofs_pac/ts-9459450.png,-160.5033,55.3317,40.03,37.75,34.39,30.52,,,,11.506,9.301,7.23,,,
ZZZZZ,9491253,Kivalina-AK,AK,-164.592,67.73,0.0033357,http://slosh.nws.noaa.gov/etss/station/etsurge2.0esri/index.php?stid=9491253&datum=MLLW&show=1-1-0-1-1,,,,,-164.5917,67.7267,5.08,4.82,4.36,3.92, , , , , , , , , 
ZZZZZ,9469854,Shishmaref-Inlet-2-AK,AK,-166.02,66.263,0.00033333,http://slosh.nws.noaa.gov/etss/station/etsurge2.0esri/index.php?stid=9469854&datum=MLLW&show=1-1-0-1-1,,,,,-166.02,66.2633,4.88,4.6,4.08,3.57, , , , , , , , , 
ZZZZZ,9468691,Shaktoolik-AK,AK,-161.235,64.38,0,http://slosh.nws.noaa.gov/etss/station/etsurge2.0esri/index.php?stid=9468691&datum=MLLW&show=1-1-0-1-1,,,,,-161.235,64.38,25.83,23.77,22.1, , , , , , , , , , 
ULRA2,9468333,Unalakleet-AK,AK,-160.787,63.875,0.0034477,http://slosh.nws.noaa.gov/etss/station/etsurge2.0esri/index.php?stid=9468333&datum=MLLW&show=1-1-0-1-1,,,,,-160.785,63.8717,5.8,4.75,3.03,1.56,,,1.597,0.721,2.87,,,,
ZZZZZ,9450551,Craig-AK,AK,-133.142,55.488,0.00038312,http://slosh.nws.noaa.gov/etss/station/etsurge2.0esri/index.php?stid=9450551&datum=MLLW&show=1-1-0-1-1,,,,,-133.1417,55.4883,17.86,15.44,10.61,5.27, , , , , , , , , 
KWJP8,1820000,Kwajalein-Marshall Islands-UN,,167.735,8.7317,0.0016477,http://slosh.nws.noaa.gov/etss/station/etsurge2.0esri/index.php?stid=1820000&datum=MLLW&show=1-1-0-1-1,-192.281,8.7832,0.054411,http://polar.ncep.noaa.gov/estofs/nowcoast/estofs_pac/ts-1820000.png,167.7367,8.7317,8.33,6.84,4.78,2.92,,,,2.084,0.89,3.92,,,
NSTP6,1770000,Pago-Pago-AM,,-170.69,-14.28,0.003704,http://slosh.nws.noaa.gov/etss/station/etsurge2.0esri/index.php?stid=1770000&datum=MLLW&show=1-1-0-1-1,,,,,-170.6883,-14.2767,6.75,5.98,4.56,3.22,,,,1.621,0.793,2.72,,,
BARA9,9761115,Barbuda-Antigua-and-Barbuda-AN,,-61.82,17.59,0.0016667,http://slosh.nws.noaa.gov/etss/station/etsurge2.0esri/index.php?stid=9761115&datum=MLLW&show=1-1-0-1-1,-61.8446,17.5546,0.043841,http://polar.ncep.noaa.gov/estofs/nowcoast/estofs_pac/ts-9761115.png,-61.82,17.5917,28.91,28.73,28.43,27.99,,,,8.757,8.532,0.74,,,
PGBP7,1631428,Pago-Bay-GUAM,,144.7967,13.4283,4.65E-05,http://slosh.nws.noaa.gov/etss/station/etsurge2.0esri/index.php?stid=1631428&datum=MLLW&show=1-1-0-1-1,-215.2054,13.424,0.0047769,http://polar.ncep.noaa.gov/estofs/nowcoast/estofs_mic/ts-1631428.png,144.7967,13.4283,26.43,26.11,25.4,24.38,,,,7.957,7.432,1.72,,,
APRP7,1630000,Apra-Harbor-Guam,,144.6533,13.4383,0.0060047,http://slosh.nws.noaa.gov/etss/station/etsurge2.0esri/index.php?stid=1630000&datum=MLLW&show=1-1-0-1-1,-215.3406,13.4486,0.0058996,http://polar.ncep.noaa.gov/estofs/nowcoast/estofs_mic/ts-1630000.png,144.6567,13.4433,4.05,3.68,2.71,1.34,,,,1.122,0.407,2.35,,,
KWHH1,1617433,Kawaihae-HI,HI,-155.8283,20.035,0.0023084,http://slosh.nws.noaa.gov/etss/station/etsurge2.0esri/index.php?stid=1617433&datum=MLLW&show=1-1-0-1-1,-155.8294,20.0366,0.00056761,http://polar.ncep.noaa.gov/estofs/nowcoast/estofs_pac/ts-1617433.png,-155.83,20.0367,5.79,4.97,3.77,2.85,3.4,,,1.51,0.852,2.16,1.2,,
MOKH1,1612480,Mokuoloe-HI,HI,-157.79,21.4317,0.0016333,http://slosh.nws.noaa.gov/etss/station/etsurge2.0esri/index.php?stid=1612480&datum=MLLW&show=1-1-0-1-1,-157.79,21.4331,0.00023333,http://polar.ncep.noaa.gov/estofs/nowcoast/estofs_pac/ts-1612480.png,-157.79,21.4333,5.83,5.04,3.97,2.92,3.4,,,1.536,0.89,2.12,1.3,,
OOUH1,1612340,Honolulu-HI,HI,-157.8667,21.3067,4.56E-05,http://slosh.nws.noaa.gov/etss/station/etsurge2.0esri/index.php?stid=1612340&datum=MLLW&show=1-1-0-1-1,-157.867,21.3067,0.00031233,http://polar.ncep.noaa.gov/estofs/nowcoast/estofs_pac/ts-1612340.png,-157.8667,21.3067,6.59,5.71,4.63,3.81,2.6,,,1.741,1.161,1.9,0.7,,
NWWH1,1611400,Nawiliwili-HI,HI,-159.355,21.9533,3.33E-05,http://slosh.nws.noaa.gov/etss/station/etsurge2.0esri/index.php?stid=1611400&datum=MLLW&show=1-1-0-1-1,-159.3561,21.9544,0.001476,http://polar.ncep.noaa.gov/estofs/nowcoast/estofs_pac/ts-1611400.png,-159.355,21.9533,4.87,4.12,3.11,2.29,3,,,1.255,0.697,1.83,1.1,,
ILOH1,1617760,Hilo-HI,HI,-155.055,19.73,0,,-155.0558,19.7303,0.00081059,http://polar.ncep.noaa.gov/estofs/nowcoast/estofs_pac/ts-1617760.png,-155.055,19.73,7.27,6.32,5.07,3.92,3.3,,,1.927,1.196,2.4,0.9,,
KLIH1,1615680,Kahului-HI,HI,-156.4767,20.895,3.11E-05,http://slosh.nws.noaa.gov/etss/station/etsurge2.0esri/index.php?stid=1615680&datum=MLLW&show=1-1-0-1-1,-156.4767,20.895,3.11E-05,http://polar.ncep.noaa.gov/estofs/nowcoast/estofs_pac/ts-1615680.png,-156.4767,20.895,5.51,4.67,3.53,2.41,3.1,,,1.422,0.736,2.25,0.8,,
SNDP5,1619910,Sand-Island-MidWay,,-177.36,28.2117,3.33E-05,http://slosh.nws.noaa.gov/etss/station/etsurge2.0esri/index.php?stid=1619910&datum=MLLW&show=1-1-0-1-1,-177.36,28.2117,3.33E-05,http://polar.ncep.noaa.gov/estofs/nowcoast/estofs_pac/ts-1619910.png,-177.36,28.2117,4.36,3.96,3.35,2.7,,,,1.206,0.824,1.25,,,
WAKP8,1890000,Wake-Island-Pacific,,166.6167,19.29,0.0015416,http://slosh.nws.noaa.gov/etss/station/etsurge2.0esri/index.php?stid=1890000&datum=MLLW&show=1-1-0-1-1,-193.3783,19.296,0.0067895,http://polar.ncep.noaa.gov/estofs/nowcoast/estofs_mic/ts-1890000.png,166.6183,19.29,7.4,6.49,5.28,4.14,,,,1.979,1.262,2.35,,,
RPLV2,8632837,Rappahannock Light-VA,VA,,,,,-76.015,37.5383,,http://polar.ncep.noaa.gov/estofs/nowcoast/estofs_atl/ts-8632837.png,,, , , , , , , , , , , , , 
CPNT2,8774513,Copano Bay-TX,TX,,,,,-97.0217,28.1183,,http://polar.ncep.noaa.gov/estofs/nowcoast/estofs_atl/ts-8774513.png,,, , , , ,2.2,2.7,3.2,1.72,1.602,0.39,1.8,2.3,2.8
PLSP4,9758053,Penuelas-PR,PR,,,,,-66.762,17.973,,http://polar.ncep.noaa.gov/estofs/nowcoast/estofs_atl/ts-9758053.png,,, , , , , , , , , , , , , 
,9410647,Angels Gate-CA,CA,,,,,-118.2461,33.7158,,http://polar.ncep.noaa.gov/estofs/nowcoast/estofs_pac/ts-9410647.png,,, , , , , , , , , , , , , 
,9410665,Los Angeles Pier J-CA,CA,,,,,-118.1857,33.733,,http://polar.ncep.noaa.gov/estofs/nowcoast/estofs_pac/ts-9410665.png,,, , , , , , , , , , , , , 
,9410666,Los Angeles Pier 400-CA,CA,,,,,-118.2413,33.7352,,http://polar.ncep.noaa.gov/estofs/nowcoast/estofs_pac/ts-9410666.png,,, , , , , , , , , , , , , 
,9411399,Gaviota State Park-Pacific Ocean-CA,CA,,,,,-120.2283,34.4694,,http://polar.ncep.noaa.gov/estofs/nowcoast/estofs_pac/ts-9411399.png,,, , , , , , , , , , , , , 
,9412802,Mansfield Cone-CA,CA,,,,,-121.4819,35.9495,,http://polar.ncep.noaa.gov/estofs/nowcoast/estofs_pac/ts-9412802.png,,, , , , , , , , , , , , , 
,9414311,Pier 1 San Francisco-CA,CA,,,,,-122.393,37.798,,http://polar.ncep.noaa.gov/estofs/nowcoast/estofs_pac/ts-9414311.png,,, , , , , , , , , , , , , 
,9414769,Oakland Middle Harbor-CA,CA,,,,,-122.33,37.8,,http://polar.ncep.noaa.gov/estofs/nowcoast/estofs_pac/ts-9414769.png,,, , , , , , , , , , , , , 
,9414776,Oakland Berth 34-San Francisco Bay-CA,CA,,,,,-122.3331,37.8106,,http://polar.ncep.noaa.gov/estofs/nowcoast/estofs_pac/ts-9414776.png,,, , , , , , , , , , , , , 
,9414847,Point Potrero Richmond-CA,CA,,,,,-122.365,37.9058,,http://polar.ncep.noaa.gov/estofs/nowcoast/estofs_pac/ts-9414847.png,,, , , , , , , , , , , , , 
,9414958,Bolinas-Bolinas Lagoon-CA,CA,,,,,-122.6785,37.908,,http://polar.ncep.noaa.gov/estofs/nowcoast/estofs_pac/ts-9414958.png,,, , , , ,,,2.02,0.679,4.4,,,,
,9415056,Point Pinole-CA,CA,,,,,-122.363,38.015,,http://polar.ncep.noaa.gov/estofs/nowcoast/estofs_pac/ts-9415056.png,,, , , , , , , , , , , , , 
,9415141,Davis Point-San Pablo Bay-CA,CA,,,,,-122.2596,38.0567,,http://polar.ncep.noaa.gov/estofs/nowcoast/estofs_pac/ts-9415141.png,,, , , , , , , , , , , , , 
,9415338,Sonoma Creek Entrance-CA,CA,,,,,-122.407,38.1567,,http://polar.ncep.noaa.gov/estofs/nowcoast/estofs_pac/ts-9415338.png,,, , , , , , , , , , , , , 
,9416409,Green Cove-Pacific Ocean-CA,CA,,,,,-123.4494,38.7043,,http://polar.ncep.noaa.gov/estofs/nowcoast/estofs_pac/ts-9416409.png,,, , , , , , , , , , , , , 
,9419945,Pyramid Point-Smith River-CA,CA,,,,,-124.2009,41.9452,,http://polar.ncep.noaa.gov/estofs/nowcoast/estofs_pac/ts-9419945.png,,, , , , , , , , , , , , , 
,9439011,Hammond-OR,OR,,,,,-123.945,46.2017,,http://polar.ncep.noaa.gov/estofs/nowcoast/estofs_pac/ts-9439011.png,,, , , , , , , , , , , , , 
,9447214,Shilshole Bay GPS Buoy-WA,WA,,,,,-122.4201,47.671,,http://polar.ncep.noaa.gov/estofs/nowcoast/estofs_pac/ts-9447214.png,,, , , , , , , , , , , , , 
,ep46402,220 NM SSE of Dutch Harbor-AK,AK,,,,,-164.01,51.07,,http://polar.ncep.noaa.gov/estofs/nowcoast/estofs_pac/ts-ep46402.png,,, , , , , , , , , , , , , 
,ep46403,186 NM SE of Shumagin Island-AK,AK,,,,,-156.94,52.65,,http://polar.ncep.noaa.gov/estofs/nowcoast/estofs_pac/ts-ep46403.png,,, , , , , , , , , , , , , 
,ep46404,230 NM West of Astoria-OR,OR,,,,,-128.78,45.86,,http://polar.ncep.noaa.gov/estofs/nowcoast/estofs_pac/ts-ep46404.png,,, , , , , , , , , , , , , 
,ep46407,210 NM West of Coos Bay-OR,OR,,,,,-128.9,42.6,,http://polar.ncep.noaa.gov/estofs/nowcoast/estofs_pac/ts-ep46407.png,,, , , , , , , , , , , , , 
,ep46408,212 NM South of Umnak Island-AK,AK,,,,,-169.87,49.63,,http://polar.ncep.noaa.gov/estofs/nowcoast/estofs_pac/ts-ep46408.png,,, , , , , , , , , , , , , 
,ep46409,210 NM SE of Kodiak-AK,AK,,,,,-148.5,55.3,,http://polar.ncep.noaa.gov/estofs/nowcoast/estofs_pac/ts-ep46409.png,,, , , , , , , , , , , , , 
,ep46410,188 NM SSE of Cordova-AK,AK,,,,,-144,57.5,,http://polar.ncep.noaa.gov/estofs/nowcoast/estofs_pac/ts-ep46410.png,,, , , , , , , , , , , , , 
,ep46411,150 NM West of Mendocino Bay-CA,CA,,,,,-127.01,39.34,,http://polar.ncep.noaa.gov/estofs/nowcoast/estofs_pac/ts-ep46411.png,,, , , , , , , , , , , , , 
,ep46412,175 NM West of San Diego-CA,CA,,,,,-120.7,32.25,,http://polar.ncep.noaa.gov/estofs/nowcoast/estofs_pac/ts-ep46412.png,,, , , , , , , , , , , , , 
,ep46413,243 NM SSE of Adak Island-AK,AK,,,,,-175.6,48.86,,http://polar.ncep.noaa.gov/estofs/nowcoast/estofs_pac/ts-ep46413.png,,, , , , , , , , , , , , , 
,ep46419,300 NM WNW of Seattle-WA,WA,,,,,-129.62,48.76,,http://polar.ncep.noaa.gov/estofs/nowcoast/estofs_pac/ts-ep46419.png,,, , , , , , , , , , , , , 
,ep51407,34 NM West of Kailua-Kona-HI,HI,,,,,-156.53,19.63,,http://polar.ncep.noaa.gov/estofs/nowcoast/estofs_pac/ts-ep51407.png,,, , , , , , , , , , , , , 
,ep21414,170 NM South of Amchitka-AK,AK,,,,,-181.737,48.948,,http://polar.ncep.noaa.gov/estofs/nowcoast/estofs_pac/ts-ep21414.png,,, , , , , , , , , , , , , 
,ep21415,175 NM South of Attu-AK,AK,,,,,-188.153,50.183,,http://polar.ncep.noaa.gov/estofs/nowcoast/estofs_pac/ts-ep21415.png,,, , , , , , , , , , , , , 
